{"city": "Tokyo", "lat": 35.6897, "lng": 139.6922, "distance": 9175.22993767317, "child_right": {"city": "Jakarta", "lat": -6.2146, "lng": 106.8451, "distance": 10952.059103864407, "child_left": {"city": "Manila", "lat": 14.6, "lng": 120.9833, "distance": 10098.692886156055, "child_left": {"city": "S\u00e3o Paulo", "lat": -23.5504, "lng": -46.6339, "distance": 9996.358548534165, "child_left": {"city": "Mexico City", "lat": 19.4333, "lng": -99.1333, "distance": 9676.209808381931, "child_left": {"city": "Ho Chi Minh City", "lat": 10.8167, "lng": 106.6333, "distance": 9473.183429771705, "child_left": {"city": "Los Angeles", "lat": 34.1139, "lng": -118.4068, "distance": 9358.967935313389, "child_left": {"city": "Bogot\u00e1", "lat": 4.6126, "lng": -74.0705, "distance": 9266.578058710556, "child_left": {"city": "San Pedro Garza Garc\u00eda", "lat": 25.6667, "lng": -100.3, "distance": 9190.744932947047, "child_right": {"city": "Yokohama", "lat": 35.4333, "lng": 139.6333, "distance": 9197.289322082393, "child_right": {"city": "Taichung", "lat": 24.15, "lng": 120.6667, "distance": 9228.442294373408, "child_left": {"city": "Taipei", "lat": 25.0478, "lng": 121.5319, "distance": 9200.840168796745, "child_left": {"city": "Belmopan", "lat": 17.25, "lng": -88.7675, "distance": 9198.68051752565, "child_left": {"city": "Ciudad Santa Catarina", "lat": 25.6833, "lng": -100.45, "distance": 9198.16843942646, "child_right": {"city": "Yotsukaid\u014d", "lat": 35.67, "lng": 140.1683, "distance": 9198.415401677554, "child_right": {"city": "Puerto Triunfo", "lat": 5.8728, "lng": -74.6397, "distance": 9198.679420738315}}, "child_left": {"city": "Stanford", "lat": 37.4252, "lng": -122.1674, "distance": 9197.823099087338, "child_right": {"city": "Porterville", "lat": 36.0644, "lng": -119.0338, "distance": 9197.90590552508, "child_right": {"city": "Tulare", "lat": 36.1996, "lng": -119.34, "distance": 9198.152228158639}, "child_left": {"city": "Corona de Tucson", "lat": 31.9495, "lng": -110.7836, "distance": 9197.851105673604}}, "child_left": {"city": "Shisui", "lat": 35.725, "lng": 140.2694, "distance": 9197.60102600933}}}, "child_right": {"city": "Miaoli", "lat": 24.57, "lng": 120.82, "distance": 9200.434753171556, "child_left": {"city": "Banqiao", "lat": 25.0143, "lng": 121.4672, "distance": 9199.939276556719, "child_left": {"city": "Kamisu", "lat": 35.89, "lng": 140.6647, "distance": 9199.147190369911, "child_right": {"city": "Hanford", "lat": 36.3274, "lng": -119.6549, "distance": 9199.392334231898, "child_right": {"city": "Makinohara", "lat": 34.74, "lng": 138.2247, "distance": 9199.565326571112}, "child_left": {"city": "Kannan", "lat": 35.0894, "lng": 138.9453, "distance": 9199.183448645585, "child_right": {"city": "Donmat\u00edas", "lat": 6.4858, "lng": -75.3953, "distance": 9199.301068679799}}}, "child_left": {"city": "Barbosa", "lat": 6.4375, "lng": -75.3306, "distance": 9198.889244465376}}, "child_right": {"city": "Palo Alto", "lat": 37.3913, "lng": -122.1468, "distance": 9200.31336187498, "child_left": {"city": "Klawer", "lat": -31.7833, "lng": 18.6167, "distance": 9200.300962425605}}}, "child_right": {"city": "Tomisato", "lat": 35.7267, "lng": 140.3431, "distance": 9200.711323829875, "child_left": {"city": "Los Altos", "lat": 37.3685, "lng": -122.0966, "distance": 9200.496009190254}}}}, "child_right": {"city": "Chiba", "lat": 35.6, "lng": 140.1, "distance": 9202.130223589831, "child_right": {"city": "Changhua", "lat": 24.0667, "lng": 120.5333, "distance": 9227.728598510417, "child_left": {"city": "Montes Claros", "lat": -16.7322, "lng": -43.8636, "distance": 9202.231680003655, "child_right": {"city": "Bello", "lat": 6.3319, "lng": -75.5581, "distance": 9223.882792041757, "child_left": {"city": "Keelung", "lat": 25.1283, "lng": 121.7419, "distance": 9206.256397403125, "child_right": {"city": "Ichihara", "lat": 35.4981, "lng": 140.1156, "distance": 9212.666996484319, "child_right": {"city": "Kisarazu", "lat": 35.3761, "lng": 139.9169, "distance": 9215.549388103036, "child_left": {"city": "Gilroy", "lat": 37.0047, "lng": -121.5855, "distance": 9215.114346218175, "child_left": {"city": "Nakhon Si Thammarat", "lat": 8.4363, "lng": 99.963, "distance": 9213.538260083815, "child_right": {"city": "Magong", "lat": 23.5667, "lng": 119.5833, "distance": 9213.951593940375, "child_right": {"city": "Kampong Chhnang", "lat": 12.25, "lng": 104.6667, "distance": 9214.757289336327, "child_right": {"city": "Uni\u00f3n Choc\u00f3", "lat": 8.0778, "lng": -77.5583, "distance": 9214.931070844228, "child_left": {"city": "Asahi", "lat": 35.7203, "lng": 140.6467, "distance": 9214.78143231859}, "child_right": {"city": "Sierra Vista Southeast", "lat": 31.4525, "lng": -110.216, "distance": 9215.065688838658}}}, "child_left": {"city": "Granada", "lat": 6.1442, "lng": -75.1853, "distance": 9213.767466861125}}, "child_left": {"city": "Naco", "lat": 31.3269, "lng": -109.9478, "distance": 9212.888028099422}}}, "child_right": {"city": "Linares", "lat": 24.8597, "lng": -99.5679, "distance": 9218.983496616078, "child_right": {"city": "Hollister", "lat": 36.8563, "lng": -121.3981, "distance": 9221.857902862683, "child_left": {"city": "Kimitsu", "lat": 35.3306, "lng": 139.9025, "distance": 9219.293233698649, "child_left": {"city": "Copacabana", "lat": 6.3486, "lng": -75.5103, "distance": 9219.100502600913, "child_right": {"city": "Capelinha", "lat": -17.6908, "lng": -42.5158, "distance": 9219.108225236618, "child_left": {"city": "Nishinoomote", "lat": 30.7325, "lng": 130.9975, "distance": 9219.100912160187}}, "child_left": {"city": "Corcoran", "lat": 36.0839, "lng": -119.561, "distance": 9219.000166435415}}, "child_right": {"city": "Guarne", "lat": 6.2792, "lng": -75.4419, "distance": 9220.233774889315, "child_left": {"city": "Futtsu", "lat": 35.3042, "lng": 139.8569, "distance": 9219.792177846546, "child_left": {"city": "Green Valley", "lat": 31.8436, "lng": -111.0174, "distance": 9219.661713526963}, "child_right": {"city": "San Buenaventura", "lat": 29.8333, "lng": -107.4667, "distance": 9219.854339268055}}, "child_right": {"city": "Cogua", "lat": 5.0619, "lng": -73.9794, "distance": 9221.712326243503, "child_left": {"city": "S\u00e3o Jo\u00e3o d\u2019Alian\u00e7a", "lat": -14.7058, "lng": -47.525, "distance": 9221.025148115166}}}}, "child_right": {"city": "Marinilla", "lat": 6.1744, "lng": -75.3389, "distance": 9221.965781248698, "child_right": {"city": "Santa Fe de Antioquia", "lat": 6.5564, "lng": -75.8275, "distance": 9223.594344849627, "child_left": {"city": "Sopetr\u00e1n", "lat": 6.5017, "lng": -75.7433, "distance": 9222.362311059262, "child_right": {"city": "Jun\u00edn", "lat": 4.7903, "lng": -73.6633, "distance": 9222.778152056977, "child_left": {"city": "Guatavita", "lat": 4.9344, "lng": -73.8344, "distance": 9222.449403711484}}}, "child_right": {"city": "Matsuzaki", "lat": 34.7531, "lng": 138.7789, "distance": 9223.85600912857}}}}, "child_left": {"city": "T\u014dgane", "lat": 35.56, "lng": 140.3661, "distance": 9217.849761442352, "child_left": {"city": "Sanmu", "lat": 35.6028, "lng": 140.4136, "distance": 9215.82210050402, "child_right": {"city": "Catacamas", "lat": 14.8, "lng": -85.9, "distance": 9216.698754133851, "child_left": {"city": "Thung Song", "lat": 8.1669, "lng": 99.6745, "distance": 9216.356475949304, "child_left": {"city": "Dabeiba", "lat": 7.0014, "lng": -76.2611, "distance": 9215.978418967568}, "child_right": {"city": "Lemoore Station", "lat": 36.2633, "lng": -119.9049, "distance": 9216.422157946898}}}}, "child_right": {"city": "Abasolo", "lat": 24.0559, "lng": -98.3733, "distance": 9218.164137708458, "child_right": {"city": "San Francisco", "lat": 15.6667, "lng": -87.0333, "distance": 9218.880292216125, "child_left": {"city": "Uramita", "lat": 6.8986, "lng": -76.1736, "distance": 9218.626263058784}}}}}}, "child_left": {"city": "Zushi", "lat": 35.2948, "lng": 139.5781, "distance": 9208.144614614152, "child_right": {"city": "Esc\u00e1rcega", "lat": 18.6067, "lng": -90.7344, "distance": 9211.392791211969, "child_right": {"city": "Girardota", "lat": 6.3769, "lng": -75.4461, "distance": 9212.17556950095}, "child_left": {"city": "Sierra Vista", "lat": 31.563, "lng": -110.3153, "distance": 9209.891440938223, "child_left": {"city": "Sahuarita", "lat": 31.9323, "lng": -110.9654, "distance": 9208.724601413232, "child_left": {"city": "Los Gatos", "lat": 37.2303, "lng": -121.956, "distance": 9208.299085017345}, "child_right": {"city": "Lemoore", "lat": 36.2949, "lng": -119.7983, "distance": 9208.748721796495, "child_right": {"city": "Malacacheta", "lat": -17.8419, "lng": -42.0769, "distance": 9209.743142374871}}}, "child_right": {"city": "Izu", "lat": 34.9767, "lng": 138.9469, "distance": 9210.081174398942, "child_right": {"city": "Uba\u00ed", "lat": -16.285, "lng": -44.7778, "distance": 9211.145892679779}}}}, "child_left": {"city": "Saratoga", "lat": 37.2684, "lng": -122.0263, "distance": 9207.44919591475, "child_left": {"city": "Itambacuri", "lat": -18.0364, "lng": -41.683, "distance": 9207.112575272313, "child_right": {"city": "Shibayama", "lat": 35.6931, "lng": 140.4142, "distance": 9207.116147632727}}, "child_right": {"city": "Mutat\u00e1", "lat": 7.2433, "lng": -76.4358, "distance": 9207.560365800355, "child_right": {"city": "San Martin", "lat": 37.0829, "lng": -121.5963, "distance": 9207.890070740403}}}}}, "child_left": {"city": "Cupertino", "lat": 37.3168, "lng": -122.0465, "distance": 9203.521457603987, "child_left": {"city": "Campbell", "lat": 37.2802, "lng": -121.9538, "distance": 9203.304127909765, "child_left": {"city": "Los Altos Hills", "lat": 37.3671, "lng": -122.139, "distance": 9202.373849404881, "child_right": {"city": "Itacambira", "lat": -17.065, "lng": -43.3089, "distance": 9203.059682624991}}, "child_right": {"city": "Veredinha", "lat": -17.3989, "lng": -42.7358, "distance": 9203.336032399417, "child_right": {"city": "Bisbee", "lat": 31.4126, "lng": -109.9179, "distance": 9203.369245989245}}}, "child_right": {"city": "Yachimata", "lat": 35.6658, "lng": 140.3183, "distance": 9205.496413270725, "child_left": {"city": "Montemorelos", "lat": 25.1872, "lng": -99.8267, "distance": 9205.311596561563, "child_left": {"city": "Nova Ven\u00e9cia", "lat": -18.7108, "lng": -40.4008, "distance": 9203.668712628403, "child_right": {"city": "Morgan Hill", "lat": 37.1326, "lng": -121.6417, "distance": 9204.897551626467, "child_right": {"city": "Ban Pak Phun", "lat": 8.5391, "lng": 99.9702, "distance": 9205.262729375183, "child_left": {"city": "General Zaragoza", "lat": 23.8667, "lng": -97.8833, "distance": 9205.011100951357}}, "child_left": {"city": "Half Moon Bay", "lat": 37.4688, "lng": -122.4383, "distance": 9204.603998747694, "child_left": {"city": "Olanchito", "lat": 15.4833, "lng": -86.5833, "distance": 9204.275592396169, "child_right": {"city": "Kushimoto", "lat": 33.4725, "lng": 135.7814, "distance": 9204.468244051997, "child_left": {"city": "Guatap\u00e9", "lat": 6.2325, "lng": -75.1586, "distance": 9204.343407512484}}}}}}, "child_right": {"city": "Jacar\u00e9", "lat": -18.9058, "lng": -40.0758, "distance": 9205.401084959274, "child_left": {"city": "Tako", "lat": 35.7356, "lng": 140.4678, "distance": 9205.382641512913}}}, "child_right": {"city": "Suesca", "lat": 5.1017, "lng": -73.7981, "distance": 9205.578810407145}}}}, "child_right": {"city": "Zipaquir\u00e1", "lat": 5.0247, "lng": -74.0014, "distance": 9226.441195165628, "child_left": {"city": "Aldama", "lat": 28.8386, "lng": -105.9111, "distance": 9226.150813672402, "child_left": {"city": "Tocancip\u00e1", "lat": 4.9661, "lng": -73.9111, "distance": 9225.119302555535, "child_left": {"city": "Barstow", "lat": 34.8661, "lng": -117.0472, "distance": 9224.702146637253, "child_right": {"city": "Medina", "lat": 4.5092, "lng": -73.3494, "distance": 9224.822877168643, "child_left": {"city": "Vila Boa", "lat": -15.0378, "lng": -47.0589, "distance": 9224.766154794588, "child_right": {"city": "Boulder Creek", "lat": 37.1341, "lng": -122.1271, "distance": 9224.803994383372}}}, "child_left": {"city": "Nagaya", "lat": 35.4308, "lng": 140.2269, "distance": 9224.137232651416}}, "child_right": {"city": "Cora\u00e7\u00e3o de Jesus", "lat": -16.685, "lng": -44.365, "distance": 9225.690921816784, "child_right": {"city": "Earlimart", "lat": 35.8824, "lng": -119.2715, "distance": 9225.96477842535}}}}, "child_right": {"city": "San Ignacio", "lat": 17.1588, "lng": -89.0696, "distance": 9226.659586713688, "child_right": {"city": "Mobara", "lat": 35.4283, "lng": 140.2881, "distance": 9227.108536238928, "child_left": {"city": "Paratebueno", "lat": 4.3753, "lng": -73.2131, "distance": 9226.72926795087, "child_left": {"city": "Interlaken", "lat": 36.9505, "lng": -121.7363, "distance": 9226.699196102252}}}}}}}, "child_right": {"city": "La Palma", "lat": 8.3982, "lng": -78.1402, "distance": 9228.290083502014, "child_left": {"city": "Scotts Valley", "lat": 37.0555, "lng": -122.0118, "distance": 9227.783106213948}, "child_right": {"city": "Ron Phibun", "lat": 8.1722, "lng": 99.8533, "distance": 9228.419482234423}}}, "child_left": {"city": "Santiago", "lat": 25.4333, "lng": -100.1333, "distance": 9201.663717936248, "child_left": {"city": "Manazuru", "lat": 35.1583, "lng": 139.1372, "distance": 9201.306267380487, "child_right": {"city": "El Granada", "lat": 37.5134, "lng": -122.466, "distance": 9201.339456533848}}, "child_right": {"city": "Woodside", "lat": 37.4222, "lng": -122.2591, "distance": 9201.87321118456}}}}, "child_right": {"city": "Medell\u00edn", "lat": 6.2447, "lng": -75.5748, "distance": 9232.510537999146, "child_right": {"city": "Chihuahua", "lat": 28.6353, "lng": -106.0889, "distance": 9254.555452462673, "child_left": {"city": "Saltillo", "lat": 25.4333, "lng": -101.0, "distance": 9253.12592137484, "child_left": {"city": "Qu\u1ea3ng Ng\u00e3i", "lat": 15.1206, "lng": 108.7922, "distance": 9250.453273095305, "child_left": {"city": "Itag\u00fc\u00ed", "lat": 6.1726, "lng": -75.6096, "distance": 9241.118011192797, "child_left": {"city": "Envigado", "lat": 6.1719, "lng": -75.5803, "distance": 9239.121609765647, "child_left": {"city": "Santa Cruz", "lat": 36.9789, "lng": -122.0346, "distance": 9236.255580357409, "child_left": {"city": "Live Oak", "lat": 36.986, "lng": -121.9804, "distance": 9233.319238714488, "child_left": {"city": "Capitola", "lat": 36.9772, "lng": -121.9538, "distance": 9233.084995185118, "child_left": {"city": "K\u014dchi", "lat": 34.7572, "lng": 138.9875, "distance": 9233.02432362558}}, "child_right": {"city": "Pleasure Point", "lat": 36.9618, "lng": -121.9715, "distance": 9235.330383289762, "child_right": {"city": "Twin Lakes", "lat": 36.9646, "lng": -121.9896, "distance": 9235.803108579506, "child_left": {"city": "S\u00e3o Rom\u00e3o", "lat": -16.3689, "lng": -45.0689, "distance": 9235.429681423142, "child_right": {"city": "Nakata", "lat": 30.5331, "lng": 130.9586, "distance": 9235.519464282217}}, "child_right": {"city": "Ichinomiya", "lat": 35.3728, "lng": 140.3689, "distance": 9236.075240523294}}, "child_left": {"city": "Bocai\u00fava", "lat": -17.1078, "lng": -43.815, "distance": 9235.037639224622, "child_left": {"city": "Barra de S\u00e3o Francisco", "lat": -18.755, "lng": -40.8908, "distance": 9233.696942004632, "child_left": {"city": "Puerto L\u00f3pez", "lat": 4.0897, "lng": -72.9619, "distance": 9233.577985516382, "child_right": {"city": "Itabirinha de Mantena", "lat": -18.5658, "lng": -41.2328, "distance": 9233.686477088868}}, "child_right": {"city": "California City", "lat": 35.1578, "lng": -117.8721, "distance": 9234.019901029185}}}}}, "child_right": {"city": "La Dorada", "lat": 5.4538, "lng": -74.6647, "distance": 9236.279011577079, "child_right": {"city": "Tela", "lat": 15.7833, "lng": -87.4667, "distance": 9238.036024455778, "child_left": {"city": "Cajic\u00e1", "lat": 4.9167, "lng": -74.025, "distance": 9237.3439704463, "child_left": {"city": "Delano", "lat": 35.767, "lng": -119.2637, "distance": 9236.827897064499, "child_right": {"city": "Pak Phanang", "lat": 8.3538, "lng": 100.2023, "distance": 9237.326793234291}}, "child_right": {"city": "Prunedale", "lat": 36.8064, "lng": -121.6555, "distance": 9237.488037168388}}, "child_right": {"city": "Riosucio", "lat": 7.4386, "lng": -77.1133, "distance": 9238.366529994868, "child_right": {"city": "Shimogamo", "lat": 34.6794, "lng": 138.9453, "distance": 9238.56593991194, "child_right": {"city": "Eb\u00e9jico", "lat": 6.3264, "lng": -75.7661, "distance": 9238.949396415188, "child_right": {"city": "\u014ctaki", "lat": 35.285, "lng": 140.2456, "distance": 9239.061728961842}}}}}}}, "child_right": {"city": "Yilan", "lat": 24.75, "lng": 121.75, "distance": 9240.466486299847, "child_right": {"city": "Ramos Arizpe", "lat": 25.55, "lng": -100.9667, "distance": 9240.702235656281, "child_right": {"city": "Mantena", "lat": -18.7819, "lng": -40.98, "distance": 9240.984691851434, "child_left": {"city": "La Uni\u00f3n", "lat": 5.9728, "lng": -75.3611, "distance": 9240.764269225177}, "child_right": {"city": "Middelburg", "lat": -31.4939, "lng": 25.0172, "distance": 9241.041890027469}}}, "child_left": {"city": "S\u00e3o Gabriel", "lat": -19.0169, "lng": -40.5358, "distance": 9240.1362449156, "child_left": {"city": "Ciudad Melchor de Mencos", "lat": 17.0667, "lng": -89.15, "distance": 9239.964021408816}}}}, "child_right": {"city": "Salinas", "lat": 36.6884, "lng": -121.6317, "distance": 9248.079037199355, "child_right": {"city": "Nantou", "lat": 23.9167, "lng": 120.6833, "distance": 9250.171450896954, "child_left": {"city": "Juticalpa", "lat": 14.6664, "lng": -86.2186, "distance": 9249.79633157042, "child_right": {"city": "Caldas", "lat": 6.0886, "lng": -75.6361, "distance": 9250.161217317886}, "child_left": {"city": "Pacora", "lat": 9.08, "lng": -79.28, "distance": 9249.697873772811, "child_left": {"city": "Twentynine Palms", "lat": 34.1478, "lng": -116.0659, "distance": 9248.260225799546, "child_left": {"city": "Avenal", "lat": 36.0311, "lng": -120.1162, "distance": 9248.14642925012}, "child_right": {"city": "Olhos d\u2019\u00c1gua", "lat": -17.3969, "lng": -43.5728, "distance": 9249.015824349874, "child_right": {"city": "Silver Lakes", "lat": 34.7519, "lng": -117.3431, "distance": 9249.182011813331}}}, "child_right": {"city": "Tenjo", "lat": 4.8697, "lng": -74.1439, "distance": 9249.714390843277}}}, "child_right": {"city": "La Calera", "lat": 4.7197, "lng": -73.97, "distance": 9250.351641449364}}, "child_left": {"city": "Sabaneta", "lat": 6.1508, "lng": -75.615, "distance": 9243.361190132093, "child_right": {"city": "McFarland", "lat": 35.6781, "lng": -119.2414, "distance": 9244.482331383155, "child_right": {"city": "Castroville", "lat": 36.765, "lng": -121.7535, "distance": 9245.629786003388, "child_right": {"city": "Banlung", "lat": 13.7394, "lng": 106.9873, "distance": 9246.466299602234, "child_left": {"city": "Coalinga", "lat": 36.143, "lng": -120.3262, "distance": 9246.255350807422, "child_left": {"city": "Huai Yot", "lat": 7.7892, "lng": 99.6329, "distance": 9245.710311523702, "child_right": {"city": "Clanwilliam", "lat": -32.1786, "lng": 18.8911, "distance": 9246.202281309133}}, "child_right": {"city": "Heliconia", "lat": 6.2106, "lng": -75.73, "distance": 9246.317886051802}}, "child_right": {"city": "\u00c1guia Branca", "lat": -18.9828, "lng": -40.74, "distance": 9247.58842585194, "child_left": {"city": "Santa Eulalia", "lat": 28.5939, "lng": -105.8878, "distance": 9247.223749303908}}}, "child_left": {"city": "S\u00e3o Miguel do Araguaia", "lat": -13.275, "lng": -50.1628, "distance": 9245.52629840061, "child_left": {"city": "S\u00e3o Jo\u00e3o de Manteninha", "lat": -18.7208, "lng": -41.16, "distance": 9244.657568813129}}}, "child_left": {"city": "Ch\u00eda", "lat": 4.8633, "lng": -74.0528, "distance": 9243.867493958345, "child_right": {"city": "Minami-B\u014ds\u014d", "lat": 35.0433, "lng": 139.8403, "distance": 9244.212469170883}}}, "child_left": {"city": "Tabio", "lat": 4.9158, "lng": -74.0983, "distance": 9242.566408603148, "child_left": {"city": "Buritis", "lat": -15.6178, "lng": -46.4228, "distance": 9242.12586766503, "child_left": {"city": "\u00c1gua Boa", "lat": -17.9958, "lng": -42.3889, "distance": 9241.247611670195}}, "child_right": {"city": "Retiro", "lat": 6.0597, "lng": -75.5039, "distance": 9243.354737117816, "child_left": {"city": "Arteaga", "lat": 25.4453, "lng": -100.8467, "distance": 9242.975361041408}}}}}}, "child_right": {"city": "Linhares", "lat": -19.3987, "lng": -40.0651, "distance": 9252.252261732454, "child_left": {"city": "Galeana", "lat": 24.8333, "lng": -100.0667, "distance": 9251.244676336633, "child_left": {"city": "Rio Rico", "lat": 31.4957, "lng": -110.9886, "distance": 9250.70911193725, "child_right": {"city": "L\u00e1zaro C\u00e1rdenas", "lat": 28.3897, "lng": -105.6236, "distance": 9251.221676494939, "child_right": {"city": "San Francisco", "lat": 4.9711, "lng": -74.2892, "distance": 9251.232695147739}}}, "child_right": {"city": "Arinos", "lat": -15.9169, "lng": -46.1058, "distance": 9251.918327730813, "child_left": {"city": "Urucuia", "lat": -16.1328, "lng": -45.7419, "distance": 9251.383806035587}, "child_right": {"city": "Mendes Pimentel", "lat": -18.6608, "lng": -41.405, "distance": 9251.920687630713}}}, "child_right": {"city": "Yuanchang", "lat": 23.642, "lng": 120.323, "distance": 9252.59535753768, "child_right": {"city": "Shinmachi", "lat": 35.1917, "lng": 140.3486, "distance": 9252.681479356082}}}}, "child_right": {"city": "Meoqui", "lat": 28.2722, "lng": -105.4819, "distance": 9254.060354304149, "child_right": {"city": "Port Shepstone", "lat": -30.7411, "lng": 30.4547, "distance": 9254.102079259519, "child_right": {"city": "Niquel\u00e2ndia", "lat": -14.4739, "lng": -48.46, "distance": 9254.43437435127, "child_left": {"city": "Claro dos Po\u00e7\u00f5es", "lat": -17.08, "lng": -44.2089, "distance": 9254.256966586267, "child_right": {"city": "Jampruca", "lat": -18.4628, "lng": -41.8039, "distance": 9254.283795005007}}}}, "child_left": {"city": "Itamarandiba", "lat": -17.8569, "lng": -42.8589, "distance": 9253.54237005648}}}, "child_right": {"city": "Heroica Nogales", "lat": 31.3186, "lng": -110.9458, "distance": 9265.071866540258, "child_left": {"city": "Puerto Cort\u00e9s", "lat": 15.8833, "lng": -87.95, "distance": 9261.902526158377, "child_left": {"city": "Delicias", "lat": 28.1931, "lng": -105.4717, "distance": 9260.708390545506, "child_right": {"city": "Las Delicias", "lat": 28.2, "lng": -105.5, "distance": 9261.656090915256, "child_left": {"city": "Santa Maria do Sua\u00e7u\u00ed", "lat": -18.19, "lng": -42.4139, "distance": 9261.080194882663}}, "child_left": {"city": "Douliu", "lat": 23.7075, "lng": 120.5439, "distance": 9260.261741572742, "child_left": {"city": "Mang La", "lat": 14.3838, "lng": 107.9833, "distance": 9258.981563485077, "child_right": {"city": "Oildale", "lat": 35.4249, "lng": -119.0279, "distance": 9259.667842592162, "child_right": {"city": "Soledad", "lat": 36.4432, "lng": -121.3426, "distance": 9260.03057390472, "child_left": {"city": "Coari", "lat": -4.085, "lng": -63.1408, "distance": 9259.959759053905, "child_left": {"city": "Sons\u00f3n", "lat": 5.7094, "lng": -75.3106, "distance": 9259.75042591726}}}, "child_left": {"city": "Amag\u00e1", "lat": 6.0383, "lng": -75.7028, "distance": 9259.144071041917, "child_right": {"city": "El Rosal", "lat": 4.8519, "lng": -74.2628, "distance": 9259.584878720274, "child_left": {"city": "S\u00e3o Sebasti\u00e3o do Maranh\u00e3o", "lat": -18.0839, "lng": -42.5708, "distance": 9259.472541616125}}}}, "child_left": {"city": "Beigang", "lat": 23.5667, "lng": 120.3, "distance": 9257.870025901339, "child_right": {"city": "Wasco", "lat": 35.5938, "lng": -119.3671, "distance": 9258.175134982392, "child_right": {"city": "Governador Lindenberg", "lat": -19.2519, "lng": -40.4608, "distance": 9258.770293380205, "child_right": {"city": "Engenheiro Navarro", "lat": -17.28, "lng": -43.95, "distance": 9258.78420358245}, "child_left": {"city": "Lucerne Valley", "lat": 34.4427, "lng": -116.9021, "distance": 9258.728907958011}}, "child_left": {"city": "Gonzales", "lat": 36.506, "lng": -121.4429, "distance": 9258.081968160684}}, "child_left": {"city": "Marina", "lat": 36.6812, "lng": -121.7895, "distance": 9255.357362514947, "child_left": {"city": "Katsuura", "lat": 35.1525, "lng": 140.3211, "distance": 9255.24327683666, "child_left": {"city": "Ershui", "lat": 23.8167, "lng": 120.6167, "distance": 9255.000206990044, "child_left": {"city": "Mara Rosa", "lat": -14.0169, "lng": -49.1778, "distance": 9254.76689527177}}}, "child_right": {"city": "Central de Minas", "lat": -18.7619, "lng": -41.3058, "distance": 9256.320211826145, "child_left": {"city": "Ban Karaket", "lat": 8.0887, "lng": 100.1398, "distance": 9255.603730711393}}}}}, "child_right": {"city": "Villeta", "lat": 5.0128, "lng": -74.4731, "distance": 9260.572436982402, "child_left": {"city": "Nogales", "lat": 31.3624, "lng": -110.9336, "distance": 9260.353819418977}}}}, "child_right": {"city": "Seaside", "lat": 36.6224, "lng": -121.8191, "distance": 9262.36470081252, "child_right": {"city": "Trang", "lat": 7.5561, "lng": 99.6114, "distance": 9264.123943036899, "child_left": {"city": "Cananea", "lat": 30.9819, "lng": -110.3006, "distance": 9263.275479139442, "child_right": {"city": "Pozi", "lat": 23.4611, "lng": 120.242, "distance": 9263.690307288014, "child_left": {"city": "Santa B\u00e1rbara", "lat": 5.8747, "lng": -75.5661, "distance": 9263.543263088895, "child_left": {"city": "Titirib\u00ed", "lat": 6.0625, "lng": -75.7936, "distance": 9263.446515336278}}, "child_right": {"city": "Tehachapi", "lat": 35.1274, "lng": -118.4749, "distance": 9263.96339166546}}, "child_left": {"city": "Honda", "lat": 5.2069, "lng": -74.7367, "distance": 9262.462663938197, "child_right": {"city": "Golden Hills", "lat": 35.1512, "lng": -118.5024, "distance": 9262.886812686567}}}, "child_right": {"city": "Saucillo", "lat": 28.0333, "lng": -105.2833, "distance": 9264.76381626686, "child_left": {"city": "Apple Valley", "lat": 34.5328, "lng": -117.2104, "distance": 9264.206331964906, "child_right": {"city": "Guaduas", "lat": 5.0694, "lng": -74.5981, "distance": 9264.5022532981, "child_left": {"city": "Rosales", "lat": 28.2, "lng": -105.55, "distance": 9264.44159275232}}}}}, "child_left": {"city": "Kon Tum", "lat": 14.3436, "lng": 107.9789, "distance": 9262.13698076736, "child_left": {"city": "Shafter", "lat": 35.4794, "lng": -119.2013, "distance": 9262.012137646054, "child_right": {"city": "Joshua Tree", "lat": 34.1236, "lng": -116.3128, "distance": 9262.081241240807}}}}}, "child_right": {"city": "Urrao", "lat": 6.3156, "lng": -76.1342, "distance": 9265.701367505439, "child_right": {"city": "Lumphat", "lat": 13.507, "lng": 106.981, "distance": 9265.97711798126}, "child_left": {"city": "Cuparaque", "lat": -18.9689, "lng": -41.0989, "distance": 9265.175715878138}}}}, "child_left": {"city": "Watsonville", "lat": 36.9206, "lng": -121.7706, "distance": 9231.05878404078, "child_left": {"city": "Siuna", "lat": 13.7333, "lng": -84.7667, "distance": 9231.041382505931, "child_left": {"city": "Carmen de Viboral", "lat": 6.0819, "lng": -75.3342, "distance": 9229.545812627792, "child_right": {"city": "Blythe", "lat": 33.622, "lng": -114.6188, "distance": 9229.996684503769, "child_right": {"city": "Soquel", "lat": 36.9978, "lng": -121.9482, "distance": 9230.828737551323, "child_left": {"city": "Carbonita", "lat": -17.5269, "lng": -43.0158, "distance": 9230.77557937148, "child_left": {"city": "Huron", "lat": 36.2041, "lng": -120.0961, "distance": 9230.419462562484}}, "child_right": {"city": "Lambert\u2019s Bay", "lat": -32.0833, "lng": 18.3, "distance": 9230.974170243438}}}, "child_left": {"city": "Ch\u014dnan", "lat": 35.3867, "lng": 140.2372, "distance": 9228.858386071417, "child_left": {"city": "Ben Lomond", "lat": 37.0782, "lng": -122.0882, "distance": 9228.700757048464}, "child_right": {"city": "Aptos", "lat": 36.9912, "lng": -121.8934, "distance": 9229.211241105379}}}}, "child_right": {"city": "Huatan", "lat": 24.0316, "lng": 120.558, "distance": 9232.346851544087, "child_left": {"city": "Sop\u00f3", "lat": 4.9081, "lng": -73.9403, "distance": 9232.134738829764, "child_left": {"city": "Guasca", "lat": 4.8658, "lng": -73.8772, "distance": 9231.327249764081, "child_right": {"city": "Rio del Mar", "lat": 36.9607, "lng": -121.8807, "distance": 9231.682625966747}}}}}}}, "child_left": {"city": "San Jose", "lat": 37.3019, "lng": -121.8486, "distance": 9196.834638882317, "child_left": {"city": "Kawanakajima", "lat": 35.53, "lng": 139.705, "distance": 9191.195455677758, "child_right": {"city": "Taoyuan District", "lat": 24.9889, "lng": 121.3111, "distance": 9192.819535734792, "child_right": {"city": "Hiratsuka", "lat": 35.3231, "lng": 139.3422, "distance": 9194.758331796358, "child_right": {"city": "Chigasaki", "lat": 35.3339, "lng": 139.4047, "distance": 9196.546786746378, "child_left": {"city": "Bade", "lat": 24.9575, "lng": 121.2989, "distance": 9194.879705189769, "child_right": {"city": "Sunnyvale", "lat": 37.3836, "lng": -122.0256, "distance": 9196.094778282812, "child_left": {"city": "Santa Clara", "lat": 37.3645, "lng": -121.968, "distance": 9195.603541100465, "child_left": {"city": "Mineshita", "lat": 35.1186, "lng": 138.9186, "distance": 9195.160433099323, "child_left": {"city": "\u014ciso", "lat": 35.3069, "lng": 139.3114, "distance": 9194.922298839409}}, "child_right": {"city": "Stung Treng", "lat": 13.5167, "lng": 105.9667, "distance": 9195.732233439547, "child_right": {"city": "East Porterville", "lat": 36.0573, "lng": -118.9713, "distance": 9195.856120399061}}}, "child_right": {"city": "Shimizuch\u014d", "lat": 35.0992, "lng": 138.9028, "distance": 9196.302021906715, "child_right": {"city": "Atherton", "lat": 37.4539, "lng": -122.2032, "distance": 9196.465910473109, "child_left": {"city": "Frei Gaspar", "lat": -18.0658, "lng": -41.4289, "distance": 9196.32330035525}}}}}, "child_right": {"city": "Mountain View", "lat": 37.4, "lng": -122.0796, "distance": 9196.700393999572, "child_right": {"city": "Valle Alto", "lat": 25.5667, "lng": -100.25, "distance": 9196.702141471238}}}, "child_left": {"city": "Garc\u00eda", "lat": 25.8167, "lng": -100.5833, "distance": 9194.14713527846, "child_left": {"city": "Narita", "lat": 35.7833, "lng": 140.3167, "distance": 9194.068017043015, "child_left": {"city": "Ninomiya", "lat": 35.3014, "lng": 139.2558, "distance": 9192.931793335121, "child_right": {"city": "Menlo Park", "lat": 37.4686, "lng": -122.1672, "distance": 9193.54549129411, "child_left": {"city": "Drexel Heights", "lat": 32.1457, "lng": -111.0478, "distance": 9192.973044818697, "child_right": {"city": "Hakone", "lat": 35.1894, "lng": 139.0264, "distance": 9193.274716704685}}, "child_right": {"city": "Chocont\u00e1", "lat": 5.1467, "lng": -73.6825, "distance": 9193.6122869434, "child_right": {"city": "Tucson Estates", "lat": 32.1792, "lng": -111.1254, "distance": 9193.779353620725}, "child_left": {"city": "Aragua\u00e7u", "lat": -12.9308, "lng": -49.8258, "distance": 9193.55259828866}}}}}, "child_right": {"city": "San Carlos", "lat": 37.4982, "lng": -122.268, "distance": 9194.757444935816, "child_left": {"city": "Belmont", "lat": 37.5154, "lng": -122.2955, "distance": 9194.188228856374, "child_right": {"city": "North Fair Oaks", "lat": 37.4754, "lng": -122.2035, "distance": 9194.362815003748, "child_left": {"city": "Bonanza", "lat": 14.0167, "lng": -84.5833, "distance": 9194.21449547196}}}}}}, "child_left": {"city": "La Ceiba", "lat": 15.78, "lng": -86.7878, "distance": 9192.578810196437, "child_left": {"city": "Yaizu", "lat": 34.8667, "lng": 138.3167, "distance": 9191.687033930466, "child_left": {"city": "San Mateo", "lat": 37.5521, "lng": -122.3122, "distance": 9191.257632943494, "child_left": {"city": "Tam K\u1ef3", "lat": 15.5667, "lng": 108.4833, "distance": 9191.219231477085}}, "child_right": {"city": "Suzukawa", "lat": 35.3731, "lng": 139.3842, "distance": 9191.84706852586, "child_right": {"city": "East Palo Alto", "lat": 37.4671, "lng": -122.1352, "distance": 9192.381957007625, "child_right": {"city": "Redwood City", "lat": 37.5026, "lng": -122.2252, "distance": 9192.574402816386}, "child_left": {"city": "Agua Prieta", "lat": 31.3258, "lng": -109.5489, "distance": 9192.275393725411, "child_left": {"city": "Pacifica", "lat": 37.6112, "lng": -122.4781, "distance": 9192.197650084587}}}}}, "child_right": {"city": "Hillsborough", "lat": 37.5573, "lng": -122.3587, "distance": 9192.64295543281}}}, "child_left": {"city": "Pingzhen", "lat": 24.9439, "lng": 121.2161, "distance": 9191.107222677723, "child_left": {"city": "Narashino", "lat": 35.6808, "lng": 140.0267, "distance": 9191.05776823038, "child_left": {"city": "Kashima", "lat": 35.9658, "lng": 140.645, "distance": 9190.940453224839}}, "child_right": {"city": "Setubinha", "lat": -17.6, "lng": -42.1589, "distance": 9191.1298964746}}}, "child_right": {"city": "Valencia West", "lat": 32.1355, "lng": -111.1123, "distance": 9197.2003966}}}, "child_left": {"city": "San Francisco", "lat": 37.7562, "lng": -122.443, "distance": 9176.488197548188, "child_right": {"city": "Zhongli", "lat": 24.965, "lng": 121.2168, "distance": 9189.272592079704, "child_left": {"city": "Tucson", "lat": 32.1545, "lng": -110.8782, "distance": 9183.53099042775, "child_left": {"city": "Hamamatsu", "lat": 34.7167, "lng": 137.7333, "distance": 9178.968099945243, "child_right": {"city": "Edogawa", "lat": 35.6924, "lng": 139.8757, "distance": 9183.190394350071, "child_left": {"city": "San Nicol\u00e1s de los Garza", "lat": 25.75, "lng": -100.2833, "distance": 9182.314653477104, "child_left": {"city": "Minato", "lat": 35.6581, "lng": 139.7514, "distance": 9180.930685153997, "child_left": {"city": "Ciudad Benito Ju\u00e1rez", "lat": 25.65, "lng": -100.0833, "distance": 9179.34843834084, "child_right": {"city": "Fuji", "lat": 35.1614, "lng": 138.6764, "distance": 9179.980268351235, "child_right": {"city": "Fremont", "lat": 37.5265, "lng": -121.9852, "distance": 9180.388311426921, "child_right": {"city": "Te\u00f3filo Otoni", "lat": -17.8578, "lng": -41.505, "distance": 9180.522835277106, "child_right": {"city": "Kamagaya", "lat": 35.7769, "lng": 140.0008, "distance": 9180.626756755542, "child_left": {"city": "Exeter", "lat": 36.294, "lng": -119.1459, "distance": 9180.534630787162}}, "child_left": {"city": "Aliwal North", "lat": -30.7, "lng": 26.7, "distance": 9180.445155090805}}}, "child_left": {"city": "Shibuya", "lat": 35.6536, "lng": 139.7092, "distance": 9179.471655503141, "child_left": {"city": "Yamakita", "lat": 35.3606, "lng": 139.0839, "distance": 9179.439660567843}}}, "child_left": {"city": "Carepa", "lat": 7.7581, "lng": -76.6553, "distance": 9178.974899449326, "child_right": {"city": "Ridgecrest", "lat": 35.6308, "lng": -117.6621, "distance": 9178.976948369525}}}, "child_right": {"city": "Zama", "lat": 35.4886, "lng": 139.4075, "distance": 9181.784062333902, "child_left": {"city": "Inzai", "lat": 35.8322, "lng": 140.1458, "distance": 9181.74812833478, "child_left": {"city": "Shiroi", "lat": 35.7917, "lng": 140.0564, "distance": 9181.67755232318, "child_right": {"city": "Namegata", "lat": 35.9903, "lng": 140.4892, "distance": 9181.693212089041}, "child_left": {"city": "Villapinz\u00f3n", "lat": 5.2158, "lng": -73.5967, "distance": 9181.674945239663, "child_left": {"city": "Kumano", "lat": 33.8833, "lng": 136.1, "distance": 9180.934440006464}}}}, "child_right": {"city": "Farmersville", "lat": 36.3053, "lng": -119.2083, "distance": 9182.157611435705, "child_left": {"city": "Lenguazaque", "lat": 5.3069, "lng": -73.7117, "distance": 9181.950239742355, "child_right": {"city": "Marip\u00ed", "lat": 5.5489, "lng": -74.0067, "distance": 9181.950473816205, "child_right": {"city": "Avra Valley", "lat": 32.4195, "lng": -111.3393, "distance": 9182.124711339526, "child_left": {"city": "Thung Yai", "lat": 8.3132, "lng": 99.3631, "distance": 9182.061226123897}}}}}}}, "child_right": {"city": "Newark", "lat": 37.5204, "lng": -122.0312, "distance": 9182.876056109948, "child_right": {"city": "Matsuda-s\u014dry\u014d", "lat": 35.3483, "lng": 139.1394, "distance": 9183.141915222137}, "child_left": {"city": "Firebaugh", "lat": 36.8534, "lng": -120.4536, "distance": 9182.364391676838, "child_right": {"city": "Vanrhynsdorp", "lat": -31.6167, "lng": 18.7167, "distance": 9182.701760490037}}}}}, "child_left": {"city": "Machida", "lat": 35.5486, "lng": 139.4467, "distance": 9177.777715589324, "child_left": {"city": "Tait\u014d", "lat": 35.7126, "lng": 139.78, "distance": 9176.958505690114, "child_right": {"city": "Gotenba", "lat": 35.3086, "lng": 138.935, "distance": 9177.662349259996, "child_left": {"city": "Inashiki", "lat": 35.9567, "lng": 140.3239, "distance": 9177.627779655095, "child_left": {"city": "Mori", "lat": 34.8333, "lng": 137.9333, "distance": 9177.132601687026, "child_right": {"city": "Flowing Wells", "lat": 32.2937, "lng": -111.011, "distance": 9177.275224674042, "child_left": {"city": "Atal\u00e9ia", "lat": -18.0439, "lng": -41.11, "distance": 9177.225396713711}, "child_right": {"city": "Prinzapolka", "lat": 13.4, "lng": -83.5667, "distance": 9177.405220177012}}, "child_left": {"city": "Dos Palos", "lat": 36.9854, "lng": -120.6336, "distance": 9177.098959485498}}}}}, "child_right": {"city": "Cadereyta Jim\u00e9nez", "lat": 25.6, "lng": -100.0, "distance": 9178.847791497848, "child_left": {"city": "Los Banos", "lat": 37.063, "lng": -120.8406, "distance": 9178.244055563546, "child_right": {"city": "Minas Novas", "lat": -17.2189, "lng": -42.59, "distance": 9178.28491152285}, "child_left": {"city": "Kerman", "lat": 36.7249, "lng": -120.0625, "distance": 9178.230426835049, "child_left": {"city": "Rincon Valley", "lat": 32.1101, "lng": -110.6889, "distance": 9178.031895143178}}}}}}, "child_right": {"city": "Guadalupe", "lat": 25.6775, "lng": -100.2597, "distance": 9187.385841917463, "child_left": {"city": "Shizuoka", "lat": 34.9756, "lng": 138.3825, "distance": 9184.291520553688, "child_right": {"city": "Yato", "lat": 35.4693, "lng": 139.4616, "distance": 9186.083515838909, "child_left": {"city": "Visalia", "lat": 36.3276, "lng": -119.3269, "distance": 9185.153292660549, "child_left": {"city": "Iwata", "lat": 34.7178, "lng": 137.8514, "distance": 9184.363699777003, "child_right": {"city": "Daly City", "lat": 37.6862, "lng": -122.4685, "distance": 9184.41925410462, "child_left": {"city": "Broadmoor", "lat": 37.6914, "lng": -122.4811, "distance": 9184.419089998215, "child_left": {"city": "S\u00e3o Francisco", "lat": -15.9489, "lng": -44.8639, "distance": 9184.378756825807}}, "child_right": {"city": "Fukuroi", "lat": 34.7503, "lng": 137.925, "distance": 9184.680560766314, "child_left": {"city": "Santo Domingo", "lat": 6.4708, "lng": -75.1658, "distance": 9184.47672747903}, "child_right": {"city": "Luisl\u00e2ndia", "lat": -16.1178, "lng": -44.5889, "distance": 9184.787509006304}}}, "child_left": {"city": "South Tucson", "lat": 32.1955, "lng": -110.9692, "distance": 9184.327781128724}}, "child_right": {"city": "Isehara", "lat": 35.4028, "lng": 139.315, "distance": 9185.859215213688, "child_left": {"city": "Milpitas", "lat": 37.4339, "lng": -121.8921, "distance": 9185.65994446841, "child_left": {"city": "South San Francisco", "lat": 37.6536, "lng": -122.4197, "distance": 9185.645388177136}}}}, "child_right": {"city": "Dangriga", "lat": 16.9667, "lng": -88.2167, "distance": 9186.374130299577, "child_left": {"city": "Puerto Boyac\u00e1", "lat": 5.9761, "lng": -74.5875, "distance": 9186.18052638096}, "child_right": {"city": "S\u00e3o Gabriel da Cachoeira", "lat": -0.13, "lng": -67.0889, "distance": 9186.770089533053, "child_right": {"city": "Villanueva", "lat": 4.6087, "lng": -72.9288, "distance": 9186.784016471165}, "child_left": {"city": "Lindsay", "lat": 36.2082, "lng": -119.0897, "distance": 9186.404727092187, "child_right": {"city": "Vail", "lat": 32.0217, "lng": -110.6937, "distance": 9186.52467096505, "child_left": {"city": "Picture Rocks", "lat": 32.3274, "lng": -111.2557, "distance": 9186.518232912711}, "child_right": {"city": "K\u014dzaki", "lat": 35.9017, "lng": 140.4053, "distance": 9186.550446753845}}}}}}, "child_left": {"city": "Nanbei", "lat": 35.3206, "lng": 139.1, "distance": 9184.015114314127, "child_right": {"city": "Bras\u00edlia de Minas", "lat": -16.2078, "lng": -44.4289, "distance": 9184.284776200118}, "child_left": {"city": "Kishi", "lat": 35.3364, "lng": 139.1233, "distance": 9183.55481465469}}}, "child_right": {"city": "Hsinchu", "lat": 24.8047, "lng": 120.9714, "distance": 9188.732961195214, "child_left": {"city": "Zhubei", "lat": 24.8333, "lng": 121.0, "distance": 9187.917248049898, "child_left": {"city": "Gaigirgordub", "lat": 9.55, "lng": -78.9667, "distance": 9187.686608591965, "child_left": {"city": "East Foothills", "lat": 37.3827, "lng": -121.8138, "distance": 9187.462633009121}}, "child_right": {"city": "Chigorod\u00f3", "lat": 7.6697, "lng": -76.6814, "distance": 9188.353964789743, "child_right": {"city": "Douglas", "lat": 31.3602, "lng": -109.5394, "distance": 9188.587820001614, "child_right": {"city": "Mendota", "lat": 36.7555, "lng": -120.3776, "distance": 9188.68855395382}, "child_left": {"city": "Nakao", "lat": 35.3308, "lng": 139.2189, "distance": 9188.431261689839}}, "child_left": {"city": "Ouro Verde de Minas", "lat": -18.0708, "lng": -41.27, "distance": 9188.321100277242}}}, "child_right": {"city": "San Bruno", "lat": 37.6254, "lng": -122.4313, "distance": 9188.89478402817, "child_right": {"city": "Foster City", "lat": 37.5553, "lng": -122.2659, "distance": 9189.052042501851, "child_right": {"city": "Alum Rock", "lat": 37.3695, "lng": -121.8241, "distance": 9189.183923581599, "child_left": {"city": "Villa de San Diego de Ubat\u00e9", "lat": 5.3072, "lng": -73.8144, "distance": 9189.133736695243}}}, "child_left": {"city": "Itako", "lat": 35.9472, "lng": 140.5553, "distance": 9188.782579403998}}}}}, "child_right": {"city": "Yachiyo", "lat": 35.7225, "lng": 140.0997, "distance": 9190.28835693566, "child_left": {"city": "Yangmei", "lat": 24.9167, "lng": 121.15, "distance": 9189.54601282149, "child_right": {"city": "Burlingame", "lat": 37.586, "lng": -122.3669, "distance": 9190.151519717176, "child_right": {"city": "Millbrae", "lat": 37.5994, "lng": -122.4023, "distance": 9190.274545844011}, "child_left": {"city": "Santa Rosa de Osos", "lat": 6.6472, "lng": -75.4606, "distance": 9190.088133842548}}}, "child_right": {"city": "Nuevo Casas Grandes", "lat": 30.4167, "lng": -107.9167, "distance": 9190.288921200274, "child_right": {"city": "Kampong Thom", "lat": 12.7111, "lng": 104.8886, "distance": 9190.607269848027, "child_left": {"city": "Kampong Thum", "lat": 12.712, "lng": 104.889, "distance": 9190.55783245732, "child_left": {"city": "Muzo", "lat": 5.5297, "lng": -74.1044, "distance": 9190.451713850574}}, "child_right": {"city": "Pot\u00e9", "lat": -17.8069, "lng": -41.7858, "distance": 9190.731337715903}}}}}, "child_left": {"city": "S\u00e3o Mateus", "lat": -18.7201, "lng": -39.8589, "distance": 9176.227804312957, "child_right": {"city": "Cuatro Ci\u00e9negas de Carranza", "lat": 26.9861, "lng": -102.0664, "distance": 9176.261498057864}, "child_left": {"city": "Ry\u016bgasaki", "lat": 35.9167, "lng": 140.1833, "distance": 9175.254315853019, "child_right": {"city": "Kingsburg", "lat": 36.5245, "lng": -119.5602, "distance": 9176.13587885217}}}}}, "child_right": {"city": "Bras\u00edlia", "lat": -15.7939, "lng": -47.8828, "distance": 9342.997498773946, "child_left": {"city": "Kaohsiung", "lat": 22.6167, "lng": 120.3, "distance": 9342.175311491117, "child_left": {"city": "Phnom Penh", "lat": 11.5696, "lng": 104.921, "distance": 9290.546101865686, "child_right": {"city": "Riverside", "lat": 33.9381, "lng": -117.3948, "distance": 9329.888683472398, "child_left": {"city": "Tainan", "lat": 22.9833, "lng": 120.1833, "distance": 9302.475155672319, "child_left": {"city": "San Pedro Sula", "lat": 15.5, "lng": -88.0333, "distance": 9300.55355137617, "child_left": {"city": "Indio", "lat": 33.7346, "lng": -116.2346, "distance": 9295.692272294018, "child_left": {"city": "Lancaster", "lat": 34.6935, "lng": -118.1753, "distance": 9292.492747854338, "child_right": {"city": "Ciudad Victoria", "lat": 23.7333, "lng": -99.1333, "distance": 9293.036284028747, "child_right": {"city": "Lhokseumawe", "lat": 5.18, "lng": 97.1506, "distance": 9294.723291643715, "child_left": {"city": "El Progreso", "lat": 15.4, "lng": -87.8, "distance": 9293.490604321496, "child_right": {"city": "Granada", "lat": 4.5186, "lng": -74.3514, "distance": 9294.346491644654, "child_left": {"city": "Thousand Palms", "lat": 33.815, "lng": -116.3545, "distance": 9293.58883980971, "child_right": {"city": "Desert Palms", "lat": 33.779, "lng": -116.293, "distance": 9294.168114870228}}}}, "child_right": {"city": "Colatina", "lat": -19.5389, "lng": -40.6308, "distance": 9295.213308086268, "child_right": {"city": "Planaltina", "lat": -15.4528, "lng": -47.6139, "distance": 9295.64526032921, "child_left": {"city": "Coachella", "lat": 33.6905, "lng": -116.143, "distance": 9295.628688503903, "child_left": {"city": "El Colegio", "lat": 4.5808, "lng": -74.4425, "distance": 9295.414227211131, "child_right": {"city": "Sun Village", "lat": 34.5596, "lng": -117.9559, "distance": 9295.526749777382, "child_right": {"city": "Fel\u00edcio dos Santos", "lat": -18.0769, "lng": -43.2469, "distance": 9295.570695158833}}, "child_left": {"city": "Coroaci", "lat": -18.6219, "lng": -42.2858, "distance": 9295.298157609202}}}}, "child_left": {"city": "Crestline", "lat": 34.2486, "lng": -117.289, "distance": 9295.147393789885, "child_left": {"city": "Tumiritinga", "lat": -18.9789, "lng": -41.645, "distance": 9295.08435820438}}}}, "child_left": {"city": "Citrusdal", "lat": -32.5894, "lng": 19.0147, "distance": 9292.60496600478}}, "child_left": {"city": "Phatthalung", "lat": 7.6178, "lng": 100.0778, "distance": 9291.51029364099, "child_right": {"city": "Camargo", "lat": 27.667, "lng": -105.167, "distance": 9291.6362200735, "child_right": {"city": "T\u00e1mesis", "lat": 5.6647, "lng": -75.7144, "distance": 9291.917010039064}, "child_left": {"city": "Pi\u00f1on Hills", "lat": 34.4438, "lng": -117.6214, "distance": 9291.523820834944}}, "child_left": {"city": "Galil\u00e9ia", "lat": -18.9989, "lng": -41.5378, "distance": 9291.297157703304}}}, "child_right": {"city": "Governador Valadares", "lat": -18.8508, "lng": -41.9489, "distance": 9299.059378974738, "child_left": {"city": "Palmdale", "lat": 34.5944, "lng": -118.1057, "distance": 9298.93134057295, "child_left": {"city": "Pleiku", "lat": 13.9715, "lng": 108.0147, "distance": 9296.552605038574, "child_right": {"city": "Acac\u00edas", "lat": 3.9889, "lng": -73.7647, "distance": 9298.548642257309, "child_left": {"city": "Cathedral City", "lat": 33.8363, "lng": -116.4642, "distance": 9296.658617626204, "child_right": {"city": "La Lima", "lat": 15.433, "lng": -87.917, "distance": 9298.51475416293, "child_left": {"city": "Ciudad Bol\u00edvar", "lat": 5.8494, "lng": -76.0203, "distance": 9297.583590975219, "child_right": {"city": "Alvar\u00e3es", "lat": -3.2, "lng": -64.8333, "distance": 9298.009757303204, "child_right": {"city": "Quartz Hill", "lat": 34.6527, "lng": -118.2163, "distance": 9298.280792000725}}, "child_left": {"city": "Bermuda Dunes", "lat": 33.7434, "lng": -116.2874, "distance": 9297.31682470637, "child_left": {"city": "Caramanta", "lat": 5.5467, "lng": -75.6442, "distance": 9297.086300655788}}}}}, "child_right": {"city": "Mundo Novo", "lat": -13.7758, "lng": -50.2808, "distance": 9298.655109166617}}}}, "child_right": {"city": "Flores", "lat": 16.9333, "lng": -89.8833, "distance": 9300.212662055026, "child_left": {"city": "Punta Gorda", "lat": 16.1, "lng": -88.8, "distance": 9300.145153929061, "child_left": {"city": "Ta Khmau", "lat": 11.4833, "lng": 104.95, "distance": 9299.939707144953, "child_left": {"city": "Urua\u00e7u", "lat": -14.525, "lng": -49.1408, "distance": 9299.469521116054, "child_right": {"city": "Japur\u00e1", "lat": -1.8261, "lng": -66.5989, "distance": 9299.864024085475}}}}, "child_right": {"city": "San Jos\u00e9 de Bocay", "lat": 13.5333, "lng": -85.5333, "distance": 9300.545881064154}}}}, "child_right": {"city": "Hualien", "lat": 23.9722, "lng": 121.6064, "distance": 9301.172343903796, "child_right": {"city": "La Chorrera", "lat": 8.8792, "lng": -79.7822, "distance": 9301.908480958733, "child_left": {"city": "Palm Desert", "lat": 33.7378, "lng": -116.3695, "distance": 9301.686304749108}, "child_right": {"city": "Rancho Mirage", "lat": 33.7634, "lng": -116.4271, "distance": 9301.918903248963, "child_right": {"city": "El Carmen de Atrato", "lat": 5.8983, "lng": -76.1431, "distance": 9302.017595040554}}}, "child_left": {"city": "Aldama", "lat": 22.9194, "lng": -98.0736, "distance": 9300.614794470137, "child_right": {"city": "Ambalema", "lat": 4.7817, "lng": -74.7639, "distance": 9300.772292368654}}}}, "child_right": {"city": "Natal", "lat": -6.9838, "lng": -60.2699, "distance": 9322.046012307626, "child_right": {"city": "Manizales", "lat": 5.0661, "lng": -75.4847, "distance": 9327.023145732139, "child_left": {"city": "Moreno Valley", "lat": 33.9244, "lng": -117.2045, "distance": 9322.462792376065, "child_right": {"city": "Yuma", "lat": 32.5992, "lng": -114.5488, "distance": 9323.828794819365, "child_right": {"city": "Prey Veng", "lat": 11.484, "lng": 105.324, "distance": 9325.68885596651, "child_right": {"city": "Jim\u00e9nez", "lat": 27.13, "lng": -104.9067, "distance": 9325.896782041587, "child_right": {"city": "Claremont", "lat": 34.1259, "lng": -117.7153, "distance": 9326.448602509867, "child_left": {"city": "Atascadero", "lat": 35.4827, "lng": -120.6858, "distance": 9326.166537368792}}}, "child_left": {"city": "Cradock", "lat": -32.1833, "lng": 25.6167, "distance": 9325.4634377352, "child_left": {"city": "Upland", "lat": 34.1178, "lng": -117.6603, "distance": 9324.721499117912, "child_left": {"city": "El Cu\u00e1", "lat": 13.3679, "lng": -85.6728, "distance": 9324.273392537474, "child_right": {"city": "Fonte Boa", "lat": -2.5139, "lng": -66.0917, "distance": 9324.642497879195, "child_left": {"city": "Salton City", "lat": 33.2994, "lng": -115.9609, "distance": 9324.499226096008}}}, "child_right": {"city": "San Jacinto", "lat": 33.797, "lng": -116.9916, "distance": 9324.895130539786, "child_right": {"city": "Valle Vista", "lat": 33.7436, "lng": -116.8872, "distance": 9325.19623363694, "child_right": {"city": "Itanhomi", "lat": -19.1719, "lng": -41.865, "distance": 9325.224516847453}, "child_left": {"city": "Santa Terezinha de Goi\u00e1s", "lat": -14.4378, "lng": -49.7058, "distance": 9325.07197988213}}, "child_left": {"city": "Piketberg", "lat": -32.9, "lng": 18.7667, "distance": 9324.887958478277}}}}}}, "child_left": {"city": "Popt\u00fan", "lat": 16.3222, "lng": -89.4222, "distance": 9322.456701883404}}, "child_right": {"city": "Ontario", "lat": 34.0393, "lng": -117.6064, "distance": 9329.827933807717, "child_left": {"city": "Jurupa Valley", "lat": 34.001, "lng": -117.4705, "distance": 9327.301065470407, "child_right": {"city": "Saldanha", "lat": -32.9978, "lng": 17.9456, "distance": 9329.443354482888, "child_left": {"city": "La Verne", "lat": 34.1208, "lng": -117.7702, "distance": 9329.442003777493, "child_left": {"city": "East Hemet", "lat": 33.7301, "lng": -116.941, "distance": 9328.984220023223, "child_left": {"city": "Agua de Dios", "lat": 4.3781, "lng": -74.6683, "distance": 9328.6261569431, "child_left": {"city": "Buen\u00f3polis", "lat": -17.8728, "lng": -44.18, "distance": 9327.505923887446}}, "child_right": {"city": "La Libertad", "lat": 16.7804, "lng": -90.12, "distance": 9329.155107334507}}}}}}}, "child_left": {"city": "San Bernardino", "lat": 34.1417, "lng": -117.2946, "distance": 9305.69200194412, "child_right": {"city": "Fontana", "lat": 34.0968, "lng": -117.4599, "distance": 9317.587855067395, "child_right": {"city": "Rancho Cucamonga", "lat": 34.1248, "lng": -117.5666, "distance": 9319.769090989153, "child_left": {"city": "Cuauht\u00e9moc", "lat": 28.405, "lng": -106.8667, "distance": 9318.47742640018, "child_right": {"city": "Puerto Barrios", "lat": 15.73, "lng": -88.6, "distance": 9318.723196677407, "child_right": {"city": "Vredenburg", "lat": -32.9, "lng": 17.9833, "distance": 9318.901320661256, "child_right": {"city": "San Mart\u00edn", "lat": 3.6969, "lng": -73.6986, "distance": 9318.93836197774, "child_right": {"city": "Tocaima", "lat": 4.4578, "lng": -74.6347, "distance": 9319.440826840555, "child_left": {"city": "Cabeceira Grande", "lat": -16.03, "lng": -47.0908, "distance": 9319.055121356694, "child_left": {"city": "Highgrove", "lat": 34.0106, "lng": -117.3098, "distance": 9319.007560423563}}}}}}, "child_left": {"city": "Bloomington", "lat": 34.0601, "lng": -117.4013, "distance": 9318.438710607646}}, "child_right": {"city": "Pirapora", "lat": -17.345, "lng": -44.9419, "distance": 9320.103219798537, "child_right": {"city": "Parras de la Fuente", "lat": 25.4403, "lng": -102.1792, "distance": 9321.926577049055, "child_left": {"city": "Kampot", "lat": 10.6, "lng": 104.1667, "distance": 9321.406200625246, "child_right": {"city": "Algodones", "lat": 32.7153, "lng": -114.7289, "distance": 9321.486989794545, "child_right": {"city": "Buritizeiro", "lat": -17.3508, "lng": -44.9619, "distance": 9321.767746207126}}, "child_left": {"city": "L\u00edvingston", "lat": 15.83, "lng": -88.75, "distance": 9320.128267066402, "child_right": {"city": "Quinch\u00eda", "lat": 5.3394, "lng": -75.7294, "distance": 9320.806438632932, "child_right": {"city": "Neira", "lat": 5.1664, "lng": -75.5189, "distance": 9320.838103442333, "child_right": {"city": "Fund\u00e3o", "lat": -19.9328, "lng": -40.4069, "distance": 9321.369136252353}}, "child_left": {"city": "Templeton", "lat": 35.556, "lng": -120.7182, "distance": 9320.38994161914}}}}}}}, "child_left": {"city": "Villanueva", "lat": 15.3167, "lng": -88.0167, "distance": 9315.25094479767, "child_left": {"city": "Fusagasug\u00e1", "lat": 4.3372, "lng": -74.3644, "distance": 9310.797060435936, "child_right": {"city": "Umtata", "lat": -31.58, "lng": 28.79, "distance": 9312.917127122379, "child_right": {"city": "Queenstown", "lat": -31.9, "lng": 26.8833, "distance": 9314.505667811552, "child_left": {"city": "Beaumont", "lat": 33.9076, "lng": -116.9766, "distance": 9313.572389683624, "child_left": {"city": "Baixo Guandu", "lat": -19.5189, "lng": -41.0158, "distance": 9313.478900147335, "child_left": {"city": "Loma Linda", "lat": 34.0451, "lng": -117.2498, "distance": 9312.932081049685}}, "child_right": {"city": "Aimor\u00e9s", "lat": -19.4958, "lng": -41.0639, "distance": 9313.794728872548, "child_right": {"city": "S\u00e3o Jo\u00e3o Evangelista", "lat": -18.5478, "lng": -42.7628, "distance": 9313.970409241627}}}, "child_right": {"city": "San Francisco", "lat": 16.8017, "lng": -89.9342, "distance": 9314.986623355077, "child_left": {"city": "Sardo\u00e1", "lat": -18.7839, "lng": -42.365, "distance": 9314.983781638899}}}, "child_left": {"city": "Rialto", "lat": 34.1174, "lng": -117.3894, "distance": 9312.37605918633, "child_left": {"city": "Suong", "lat": 11.9167, "lng": 105.65, "distance": 9311.06633263144, "child_right": {"city": "Riosucio", "lat": 5.4208, "lng": -75.7028, "distance": 9311.973021541175, "child_left": {"city": "Alpercata", "lat": -18.9739, "lng": -41.97, "distance": 9311.93034656255}, "child_right": {"city": "Acton", "lat": 34.4956, "lng": -118.1857, "distance": 9312.085239827178}}, "child_left": {"city": "Imuris", "lat": 30.7667, "lng": -110.8333, "distance": 9310.866073991709}}, "child_right": {"city": "Wiwil\u00ed", "lat": 13.6167, "lng": -85.8167, "distance": 9312.69808630765, "child_left": {"city": "Jurad\u00f3", "lat": 7.1114, "lng": -77.7714, "distance": 9312.446794238509}}}}, "child_left": {"city": "Bluefields", "lat": 12.014, "lng": -83.7645, "distance": 9309.721757980074, "child_right": {"city": "Sonoita", "lat": 31.8614, "lng": -112.8544, "distance": 9310.507686611454, "child_left": {"city": "L\u00edbano", "lat": 4.9206, "lng": -75.0611, "distance": 9309.743220872619}, "child_right": {"city": "Fortuna Foothills", "lat": 32.6616, "lng": -114.3973, "distance": 9310.566742904872}}, "child_left": {"city": "Redlands", "lat": 34.0511, "lng": -117.1712, "distance": 9308.742599591971, "child_right": {"city": "El Paso de Robles", "lat": 35.6394, "lng": -120.656, "distance": 9309.571080993861, "child_left": {"city": "Calimesa", "lat": 33.9874, "lng": -117.0542, "distance": 9309.481964048482}, "child_right": {"city": "Itueta", "lat": -19.3939, "lng": -41.17, "distance": 9309.622061433643}}, "child_left": {"city": "Alta Floresta", "lat": -9.8758, "lng": -56.0858, "distance": 9306.159203220332, "child_right": {"city": "Padre Bernardo", "lat": -15.16, "lng": -48.2839, "distance": 9307.626936321658, "child_left": {"city": "Banning", "lat": 33.946, "lng": -116.8992, "distance": 9306.307171064966, "child_right": {"city": "Silvania", "lat": 4.4033, "lng": -74.3881, "distance": 9306.798503468162, "child_right": {"city": "Resplendor", "lat": -19.3258, "lng": -41.255, "distance": 9307.58690371593, "child_left": {"city": "Muscoy", "lat": 34.155, "lng": -117.3477, "distance": 9306.845756458606, "child_right": {"city": "Santa Ana", "lat": 16.8069, "lng": -89.8272, "distance": 9307.435213444967}}}, "child_left": {"city": "Cherry Valley", "lat": 33.9797, "lng": -116.9694, "distance": 9306.311102506044}}}}, "child_left": {"city": "Sup\u00eda", "lat": 5.4506, "lng": -75.6514, "distance": 9305.815075699295, "child_right": {"city": "Taft", "lat": 35.1267, "lng": -119.4242, "distance": 9306.06719330038}}}}}}, "child_right": {"city": "Madera", "lat": 29.19, "lng": -108.1414, "distance": 9315.486950321581, "child_right": {"city": "Graaff-Reinet", "lat": -32.2522, "lng": 24.5406, "distance": 9317.316719646144, "child_left": {"city": "Colton", "lat": 34.0538, "lng": -117.3254, "distance": 9315.565187654975, "child_right": {"city": "Cofrad\u00eda", "lat": 15.4168, "lng": -88.1603, "distance": 9316.265418523608, "child_right": {"city": "Grand Terrace", "lat": 34.0312, "lng": -117.3132, "distance": 9317.180783483594, "child_right": {"city": "Calipatria", "lat": 33.1493, "lng": -115.5056, "distance": 9317.299502707358}}}}, "child_right": {"city": "Santa Rita do Itueto", "lat": -19.36, "lng": -41.38, "distance": 9317.463208014035}}}}}, "child_left": {"city": "An\u00e1huac", "lat": 28.48, "lng": -106.7442, "distance": 9304.86829329632, "child_left": {"city": "Tef\u00e9", "lat": -3.3539, "lng": -64.7108, "distance": 9303.045979503077, "child_left": {"city": "Highland", "lat": 34.1113, "lng": -117.1654, "distance": 9302.685563724499, "child_left": {"city": "Beaufort West", "lat": -32.35, "lng": 22.5833, "distance": 9302.5502348767}, "child_right": {"city": "Pe\u00e7anha", "lat": -18.5489, "lng": -42.5569, "distance": 9302.950552399056, "child_left": {"city": "Mecca", "lat": 33.5767, "lng": -116.0645, "distance": 9302.840371162014}}}, "child_right": {"city": "Yucaipa", "lat": 34.0336, "lng": -117.0429, "distance": 9304.51985402683, "child_left": {"city": "Palm Springs", "lat": 33.8017, "lng": -116.5382, "distance": 9303.419989217424, "child_right": {"city": "Andes", "lat": 5.6556, "lng": -75.8803, "distance": 9304.33916965861, "child_left": {"city": "Conselheiro Pena", "lat": -19.1719, "lng": -41.4719, "distance": 9304.33836347575, "child_left": {"city": "Saint Helena Bay", "lat": -32.7583, "lng": 18.0278, "distance": 9303.557457499151, "child_right": {"city": "Indian Wells", "lat": 33.7036, "lng": -116.3396, "distance": 9303.567832037954}}}}, "child_left": {"city": "Rio Vermelho", "lat": -18.2939, "lng": -43.0089, "distance": 9303.19580028293}}}}, "child_right": {"city": "La Quinta", "lat": 33.6536, "lng": -116.2785, "distance": 9305.503040706451, "child_left": {"city": "Dolores", "lat": 16.5142, "lng": -89.4158, "distance": 9305.419098667033, "child_left": {"city": "Jard\u00edn", "lat": 5.5983, "lng": -75.8197, "distance": 9304.988855588144, "child_right": {"city": "Mentone", "lat": 34.0609, "lng": -117.1108, "distance": 9305.021682217408, "child_right": {"city": "Jaqu\u00e9", "lat": 7.519, "lng": -78.166, "distance": 9305.231196270002}}}}, "child_right": {"city": "Velddrif", "lat": -32.7667, "lng": 18.1667, "distance": 9305.509741081301}}}}}}, "child_right": {"city": "Serra", "lat": -20.1289, "lng": -40.3078, "distance": 9335.074683984316, "child_left": {"city": "Santa Clarita", "lat": 34.4175, "lng": -118.4964, "distance": 9333.62192165652, "child_left": {"city": "Hemet", "lat": 33.7341, "lng": -116.9969, "distance": 9331.185973153002, "child_right": {"city": "Takeo", "lat": 10.9833, "lng": 104.7833, "distance": 9331.25398661436, "child_right": {"city": "V\u00e1rzea da Palma", "lat": -17.5978, "lng": -44.7308, "distance": 9332.124235736423, "child_right": {"city": "San Dimas", "lat": 34.1082, "lng": -117.809, "distance": 9332.424391292592, "child_right": {"city": "Castaic", "lat": 34.4818, "lng": -118.6317, "distance": 9333.465813806195, "child_left": {"city": "Alvarado", "lat": 4.5672, "lng": -74.9533, "distance": 9332.436526483103}}, "child_left": {"city": "Itagua\u00e7u", "lat": -19.8019, "lng": -40.8558, "distance": 9332.216324807181, "child_right": {"city": "Port Saint John\u2019s", "lat": -31.6288, "lng": 29.5369, "distance": 9332.271474391297}}}, "child_left": {"city": "Talanga", "lat": 14.4, "lng": -87.0833, "distance": 9331.307956468503, "child_right": {"city": "Nuevo", "lat": 33.8011, "lng": -117.1415, "distance": 9331.42155844043}}}}, "child_left": {"city": "Montclair", "lat": 34.0714, "lng": -117.698, "distance": 9330.915360508685, "child_left": {"city": "Gonz\u00e1lez", "lat": 22.8281, "lng": -98.4306, "distance": 9330.634444831476, "child_left": {"city": "Glendora", "lat": 34.1449, "lng": -117.8468, "distance": 9330.60337482129}}, "child_right": {"city": "Villamar\u00eda", "lat": 5.0456, "lng": -75.5153, "distance": 9330.926056995373, "child_right": {"city": "Diamantina", "lat": -18.2489, "lng": -43.6, "distance": 9331.173533210494, "child_left": {"city": "Nova Crix\u00e1s", "lat": -14.0989, "lng": -50.3269, "distance": 9331.116928977508}}, "child_left": {"city": "Somerton", "lat": 32.6009, "lng": -114.699, "distance": 9330.925538200489}}}}, "child_right": {"city": "San Luis", "lat": 16.2, "lng": -89.44, "distance": 9334.216940602468, "child_left": {"city": "Balanc\u00e1n", "lat": 17.8, "lng": -91.53, "distance": 9333.630311420107, "child_right": {"city": "Azusa", "lat": 34.1386, "lng": -117.9124, "distance": 9334.193833272524, "child_left": {"city": "Duarte", "lat": 34.161, "lng": -117.9504, "distance": 9333.757592167152}}}, "child_right": {"city": "Tlahualilo de Zaragoza", "lat": 26.1167, "lng": -103.45, "distance": 9334.732771842659, "child_left": {"city": "Brawley", "lat": 32.9783, "lng": -115.5287, "distance": 9334.722021235693, "child_left": {"city": "Woodcrest", "lat": 33.8789, "lng": -117.3686, "distance": 9334.386355258164}}, "child_right": {"city": "Mead Valley", "lat": 33.8333, "lng": -117.2852, "distance": 9334.942454060547}}}}, "child_right": {"city": "Pomona", "lat": 34.0585, "lng": -117.7626, "distance": 9335.105281230242, "child_right": {"city": "Altamira", "lat": 22.3375, "lng": -97.8694, "distance": 9339.621484493842, "child_right": {"city": "West Covina", "lat": 34.0555, "lng": -117.9112, "distance": 9342.160790978987, "child_left": {"city": "San Jos\u00e9 del Guaviare", "lat": 2.5653, "lng": -72.6386, "distance": 9341.670693428478, "child_left": {"city": "San Pedro", "lat": 25.7589, "lng": -102.9844, "distance": 9340.148732809668, "child_right": {"city": "Arcadia", "lat": 34.1342, "lng": -118.0373, "distance": 9340.289381817445, "child_right": {"city": "Home Gardens", "lat": 33.8784, "lng": -117.5116, "distance": 9340.995543048051, "child_left": {"city": "Mayflower Village", "lat": 34.116, "lng": -118.0096, "distance": 9340.790250748234, "child_left": {"city": "La Ca\u00f1ada Flintridge", "lat": 34.2097, "lng": -118.2002, "distance": 9340.371913555928, "child_right": {"city": "Stevenson Ranch", "lat": 34.3894, "lng": -118.5885, "distance": 9340.476908555025, "child_right": {"city": "Good Hope", "lat": 33.7706, "lng": -117.2772, "distance": 9340.609056265987}}}}}}, "child_left": {"city": "La Crescenta-Montrose", "lat": 34.2322, "lng": -118.2353, "distance": 9339.783412659555, "child_right": {"city": "Itarana", "lat": -19.8739, "lng": -40.875, "distance": 9340.125903842352, "child_left": {"city": "Hopefield", "lat": -33.0667, "lng": 18.35, "distance": 9340.051389824548}}}}, "child_right": {"city": "Krong Kep", "lat": 10.4828, "lng": 104.3167, "distance": 9341.834362038391, "child_left": {"city": "Melgar", "lat": 4.2039, "lng": -74.6428, "distance": 9341.758920080172, "child_right": {"city": "East Pasadena", "lat": 34.1377, "lng": -118.0776, "distance": 9341.778754146279}}, "child_right": {"city": "San Luis", "lat": 32.4911, "lng": -114.7089, "distance": 9341.847082965734, "child_right": {"city": "Walnut", "lat": 34.0334, "lng": -117.8593, "distance": 9341.932136219255}}}}}, "child_left": {"city": "Covina", "lat": 34.0903, "lng": -117.8817, "distance": 9337.460033521062, "child_right": {"city": "Altadena", "lat": 34.1928, "lng": -118.1345, "distance": 9339.032797613483, "child_left": {"city": "Vincent", "lat": 34.0982, "lng": -117.9238, "distance": 9338.611783551893, "child_left": {"city": "Chino", "lat": 33.9836, "lng": -117.6654, "distance": 9337.893275992716, "child_right": {"city": "Norco", "lat": 33.9252, "lng": -117.5499, "distance": 9338.24041060071}, "child_left": {"city": "Sierra Madre", "lat": 34.1687, "lng": -118.0504, "distance": 9337.551181405503, "child_right": {"city": "Porterville", "lat": -33.0, "lng": 18.9833, "distance": 9337.701501118192}}}, "child_right": {"city": "Una\u00ed", "lat": -16.3578, "lng": -46.9058, "distance": 9338.96767438296, "child_left": {"city": "Ph\u00fa Qu\u1ed1c", "lat": 10.2289, "lng": 103.9572, "distance": 9338.65734713355}}}, "child_right": {"city": "South Monrovia Island", "lat": 34.1234, "lng": -117.9958, "distance": 9339.449243883546, "child_left": {"city": "El Sobrante", "lat": 33.8724, "lng": -117.4625, "distance": 9339.322291119577, "child_right": {"city": "Engenheiro Caldas", "lat": -19.2189, "lng": -42.0458, "distance": 9339.347778900747}, "child_left": {"city": "Guerrero", "lat": 28.5478, "lng": -107.4856, "distance": 9339.187475271912}}, "child_right": {"city": "Lake Mathews", "lat": 33.825, "lng": -117.3683, "distance": 9339.562441417278}}}, "child_left": {"city": "Magdalena de Kino", "lat": 30.6167, "lng": -111.05, "distance": 9336.048836008029, "child_right": {"city": "La Junta", "lat": 28.4778, "lng": -107.3317, "distance": 9337.238162115867, "child_left": {"city": "Perris", "lat": 33.7899, "lng": -117.2233, "distance": 9336.269403682909, "child_left": {"city": "Eastvale", "lat": 33.9617, "lng": -117.5802, "distance": 9336.109504839658}, "child_right": {"city": "Virgin\u00f3polis", "lat": -18.8228, "lng": -42.7039, "distance": 9336.93365888391, "child_left": {"city": "Cambria", "lat": 35.5523, "lng": -121.0847, "distance": 9336.413396381578}}}}, "child_left": {"city": "Citrus", "lat": 34.1161, "lng": -117.889, "distance": 9335.30190733093, "child_left": {"city": "Charter Oak", "lat": 34.1025, "lng": -117.8564, "distance": 9335.131680607095, "child_right": {"city": "Monrovia", "lat": 34.165, "lng": -117.9921, "distance": 9335.264230002042}}, "child_right": {"city": "Homeland", "lat": 33.7459, "lng": -117.1132, "distance": 9335.424882582665}}}}}}}}, "child_left": {"city": "Panama City", "lat": 9.0, "lng": -79.5, "distance": 9271.889803109547, "child_right": {"city": "Soacha", "lat": 4.5781, "lng": -74.2144, "distance": 9279.633731303931, "child_left": {"city": "Villavicencio", "lat": 4.1425, "lng": -73.6294, "distance": 9275.890661966912, "child_left": {"city": "Chiayi", "lat": 23.48, "lng": 120.4497, "distance": 9274.710817658892, "child_left": {"city": "Kampong Speu", "lat": 11.452, "lng": 104.519, "distance": 9272.846892998992, "child_left": {"city": "Sihanoukville", "lat": 10.6333, "lng": 103.5, "distance": 9272.333698937739, "child_right": {"city": "Betulia", "lat": 6.1122, "lng": -75.9839, "distance": 9272.549977098259}}, "child_right": {"city": "Zhushan", "lat": 23.6889, "lng": 120.7289, "distance": 9273.184332405795, "child_right": {"city": "Arvin", "lat": 35.1944, "lng": -118.8306, "distance": 9273.293003445948, "child_right": {"city": "King City", "lat": 36.2166, "lng": -121.133, "distance": 9273.401430113832}}, "child_left": {"city": "Concordia", "lat": 6.0456, "lng": -75.9075, "distance": 9272.88495927022, "child_right": {"city": "Ibia\u00ed", "lat": -16.8608, "lng": -44.9139, "distance": 9272.971202463405}}}}, "child_right": {"city": "Bojac\u00e1", "lat": 4.7336, "lng": -74.3422, "distance": 9275.288116123515, "child_right": {"city": "Zipac\u00f3n", "lat": 4.76, "lng": -74.3797, "distance": 9275.659908137073}}}, "child_right": {"city": "Pensilvania", "lat": 5.384, "lng": -75.1612, "distance": 9277.105423012199, "child_right": {"city": "Aguadas", "lat": 5.6092, "lng": -75.4564, "distance": 9278.556910722229, "child_left": {"city": "Rosamond", "lat": 34.8658, "lng": -118.2154, "distance": 9277.645369748507, "child_right": {"city": "G\u00f3mez Far\u00edas", "lat": 29.3583, "lng": -107.7361, "distance": 9278.119585928558, "child_left": {"city": "Francisco Dumont", "lat": -17.315, "lng": -44.2339, "distance": 9277.825788677304}}, "child_left": {"city": "Big Bear Lake", "lat": 34.2429, "lng": -116.8951, "distance": 9277.597664769777}}}}}, "child_right": {"city": "Choloma", "lat": 15.6333, "lng": -88.0, "distance": 9286.818271075363, "child_left": {"city": "Ciudad del Carmen", "lat": 18.6333, "lng": -91.8333, "distance": 9280.999708715399, "child_right": {"city": "Mit\u00fa", "lat": 1.2503, "lng": -70.235, "distance": 9286.53335675142, "child_left": {"city": "Hesperia", "lat": 34.3975, "lng": -117.3147, "distance": 9281.993745837297, "child_right": {"city": "Salgar", "lat": 5.9639, "lng": -75.9775, "distance": 9284.785332248952, "child_right": {"city": "Lake Los Angeles", "lat": 34.6097, "lng": -117.8339, "distance": 9285.171573841353}, "child_left": {"city": "Jequita\u00ed", "lat": -17.2358, "lng": -44.4458, "distance": 9282.133375796455, "child_right": {"city": "Tarso", "lat": 5.865, "lng": -75.8225, "distance": 9282.367875395994, "child_right": {"city": "S\u00e3o Jos\u00e9 do Jacuri", "lat": -18.275, "lng": -42.67, "distance": 9283.015129079615, "child_left": {"city": "Virgol\u00e2ndia", "lat": -18.4758, "lng": -42.3069, "distance": 9282.51866161108}}}}}, "child_left": {"city": "Anolaima", "lat": 4.7633, "lng": -74.4647, "distance": 9281.34418372731, "child_right": {"city": "Nacozari Viejo", "lat": 30.42, "lng": -109.65, "distance": 9281.682640481094}}}}, "child_left": {"city": "Balboa Heights", "lat": 8.95, "lng": -79.5667, "distance": 9280.81837089058, "child_left": {"city": "Campinorte", "lat": -14.3139, "lng": -49.1519, "distance": 9280.638852355782}}}, "child_right": {"city": "Kampong Cham", "lat": 12.0, "lng": 105.45, "distance": 9290.15394468732, "child_left": {"city": "Formosa", "lat": -15.5369, "lng": -47.3339, "distance": 9287.195648595094, "child_right": {"city": "Kratie", "lat": 12.4881, "lng": 106.0188, "distance": 9287.445482959152, "child_right": {"city": "Desert Hot Springs", "lat": 33.9551, "lng": -116.543, "distance": 9288.931398654622, "child_left": {"city": "Fresno", "lat": 5.1536, "lng": -75.0369, "distance": 9288.098623186455, "child_right": {"city": "Manzanares", "lat": 5.2519, "lng": -75.1569, "distance": 9288.108876649967, "child_right": {"city": "Yorito", "lat": 15.06, "lng": -87.29, "distance": 9288.424493365852, "child_right": {"city": "Kukrahill", "lat": 12.25, "lng": -83.75, "distance": 9288.49410510138}, "child_left": {"city": "Cabeceiras", "lat": -15.8008, "lng": -46.9269, "distance": 9288.232566820536}}}, "child_left": {"city": "Phelan", "lat": 34.4398, "lng": -117.5248, "distance": 9287.510867367233, "child_right": {"city": "Guayabal", "lat": 5.0306, "lng": -74.8844, "distance": 9287.92191020224, "child_right": {"city": "S\u00e3o Pedro do Sua\u00e7u\u00ed", "lat": -18.3658, "lng": -42.6028, "distance": 9288.013305038245}}}}, "child_right": {"city": "Garnet", "lat": 33.9179, "lng": -116.4796, "distance": 9289.551954331617}}}, "child_left": {"city": "Manicor\u00e9", "lat": -5.8089, "lng": -61.3, "distance": 9287.133383596973, "child_left": {"city": "Oak Hills", "lat": 34.3912, "lng": -117.4125, "distance": 9287.069142641594}}}, "child_right": {"city": "Sibat\u00e9", "lat": 4.4908, "lng": -74.2594, "distance": 9290.269608805482, "child_right": {"city": "Lake Arrowhead", "lat": 34.2531, "lng": -117.1945, "distance": 9290.382303441962}}}}}, "child_left": {"city": "Bakersfield", "lat": 35.3529, "lng": -119.0359, "distance": 9267.004573090495, "child_right": {"city": "Victorville", "lat": 34.5277, "lng": -117.3536, "distance": 9271.239331532779, "child_left": {"city": "San Miguelito", "lat": 9.05, "lng": -79.5, "distance": 9267.616469403747, "child_right": {"city": "Col\u00f3n", "lat": 9.3598, "lng": -79.9004, "distance": 9269.066522264526, "child_right": {"city": "Facatativ\u00e1", "lat": 4.8147, "lng": -74.3553, "distance": 9269.263332152772, "child_right": {"city": "Madrid", "lat": 4.7306, "lng": -74.2639, "distance": 9270.048578478227, "child_right": {"city": "Taibao", "lat": 23.45, "lng": 120.3333, "distance": 9270.259443945379, "child_right": {"city": "Rosedale", "lat": 35.3887, "lng": -119.2058, "distance": 9271.014818165435}, "child_left": {"city": "Lamont", "lat": 35.2651, "lng": -118.9159, "distance": 9270.217557902928, "child_left": {"city": "Kantang", "lat": 7.4067, "lng": 99.515, "distance": 9270.140039418193, "child_left": {"city": "Spring Valley Lake", "lat": 34.4987, "lng": -117.2683, "distance": 9270.134087759558}}}}, "child_left": {"city": "Mosquera", "lat": 4.7078, "lng": -74.2328, "distance": 9269.817894151503, "child_right": {"city": "Adelanto", "lat": 34.5815, "lng": -117.4397, "distance": 9269.985842075144}, "child_left": {"city": "Alb\u00e1n", "lat": 4.8783, "lng": -74.4383, "distance": 9269.644322016948}}}}, "child_left": {"city": "Greenfield", "lat": 36.3232, "lng": -121.2451, "distance": 9267.689229650456, "child_right": {"city": "Candelaria", "lat": 18.1844, "lng": -91.0461, "distance": 9268.482525474743, "child_left": {"city": "Monterey", "lat": 36.5922, "lng": -121.8807, "distance": 9267.893452233848, "child_right": {"city": "Frei Inoc\u00eancio", "lat": -18.545, "lng": -41.9219, "distance": 9268.443116914126, "child_left": {"city": "Jos\u00e9 Raydam", "lat": -18.2189, "lng": -42.4989, "distance": 9268.423122813676}}, "child_left": {"city": "Greenacres", "lat": 35.3831, "lng": -119.1184, "distance": 9267.711356197313}}}}}, "child_left": {"city": "Pacific Grove", "lat": 36.6192, "lng": -121.9255, "distance": 9267.101025025324, "child_right": {"city": "Funza", "lat": 4.7175, "lng": -74.2094, "distance": 9267.344659046012, "child_left": {"city": "Yucca Valley", "lat": 34.1234, "lng": -116.4216, "distance": 9267.157796594727}}}}, "child_right": {"city": "Yoro", "lat": 15.1333, "lng": -87.1333, "distance": 9271.534707860586, "child_right": {"city": "Big Bear City", "lat": 34.2536, "lng": -116.7903, "distance": 9271.737807715654}}}, "child_left": {"city": "Fredonia", "lat": 5.9267, "lng": -75.6739, "distance": 9266.661141879518, "child_right": {"city": "Bear Valley Springs", "lat": 35.1775, "lng": -118.646, "distance": 9266.734186129184}}}}}, "child_right": {"city": "Pasadena", "lat": 34.1597, "lng": -118.139, "distance": 9342.434957616173, "child_left": {"city": "Baldwin Park", "lat": 34.0829, "lng": -117.9721, "distance": 9342.283739193796}, "child_right": {"city": "Frontera", "lat": 18.5336, "lng": -92.6469, "distance": 9342.674993587834, "child_left": {"city": "Bel\u00e9n de Umbr\u00eda", "lat": 5.2006, "lng": -75.8689, "distance": 9342.478066825804, "child_right": {"city": "Sabin\u00f3polis", "lat": -18.6658, "lng": -43.0839, "distance": 9342.57466235072}}, "child_right": {"city": "Ban Muang Ngam", "lat": 7.3536, "lng": 100.4898, "distance": 9342.941816800028}}}}, "child_right": {"city": "Pingtung", "lat": 22.6761, "lng": 120.4942, "distance": 9348.825363717266, "child_right": {"city": "Murrieta", "lat": 33.572, "lng": -117.1909, "distance": 9355.740920858294, "child_left": {"city": "Vila Velha", "lat": -20.3364, "lng": -40.2936, "distance": 9354.29180825038, "child_left": {"city": "Cariacica", "lat": -20.2639, "lng": -40.42, "distance": 9353.868640734616, "child_left": {"city": "Alhambra", "lat": 34.084, "lng": -118.1355, "distance": 9349.59140335182, "child_right": {"city": "Monterey Park", "lat": 34.0497, "lng": -118.1326, "distance": 9352.774425310292, "child_left": {"city": "South San Gabriel", "lat": 34.0489, "lng": -118.0961, "distance": 9351.196541599376, "child_right": {"city": "Lake Elsinore", "lat": 33.6847, "lng": -117.3344, "distance": 9351.511556421985, "child_right": {"city": "Yorba Linda", "lat": 33.889, "lng": -117.7714, "distance": 9351.85771476688, "child_right": {"city": "Brea", "lat": 33.9254, "lng": -117.8656, "distance": 9352.64216055929, "child_left": {"city": "A\u00e7ucena", "lat": -19.0728, "lng": -42.5458, "distance": 9352.2039501942}}, "child_left": {"city": "Moorreesburg", "lat": -33.15, "lng": 18.6667, "distance": 9351.714832122463}}, "child_left": {"city": "Port Mathurin", "lat": -19.6833, "lng": 63.4211, "distance": 9351.24049864197}}, "child_left": {"city": "Ciudad Cuauht\u00e9moc", "lat": 22.1833, "lng": -97.8333, "distance": 9351.058181664785, "child_left": {"city": "Hacienda Heights", "lat": 33.997, "lng": -117.9728, "distance": 9350.60991173269, "child_left": {"city": "Col\u00edder", "lat": -10.8128, "lng": -55.455, "distance": 9350.03874014937, "child_right": {"city": "Temescal Valley", "lat": 33.7581, "lng": -117.4677, "distance": 9350.571771911766, "child_left": {"city": "Imperial", "lat": 32.839, "lng": -115.5719, "distance": 9350.07877618157}}}, "child_right": {"city": "Crix\u00e1s", "lat": -14.5489, "lng": -49.9689, "distance": 9351.026007783963, "child_left": {"city": "Lassance", "lat": -17.8869, "lng": -44.5778, "distance": 9350.865154860308}}}}}, "child_right": {"city": "Santa Rosa de Cabal", "lat": 4.8672, "lng": -75.6211, "distance": 9353.626280797438, "child_left": {"city": "Mozonte", "lat": 13.65, "lng": -86.45, "distance": 9352.932500536434, "child_right": {"city": "La Habra Heights", "lat": 33.9602, "lng": -117.951, "distance": 9353.171619991013}, "child_left": {"city": "Datas", "lat": -18.4458, "lng": -43.6558, "distance": 9352.872382239177}}}}, "child_left": {"city": "South El Monte", "lat": 34.0493, "lng": -118.0484, "distance": 9348.99345959501, "child_right": {"city": "Rowland Heights", "lat": 33.9716, "lng": -117.8911, "distance": 9349.344640238583, "child_left": {"city": "French Valley", "lat": 33.5998, "lng": -117.1069, "distance": 9349.184934968149, "child_right": {"city": "Los Osos", "lat": 35.3068, "lng": -120.8249, "distance": 9349.336847929793}}}}}}, "child_right": {"city": "Vit\u00f3ria", "lat": -20.3189, "lng": -40.3378, "distance": 9354.896652701844, "child_left": {"city": "El Centro", "lat": 32.7867, "lng": -115.5586, "distance": 9354.43998159778, "child_right": {"city": "Tenosique", "lat": 17.4756, "lng": -91.4225, "distance": 9354.781757182274, "child_left": {"city": "Wildomar", "lat": 33.6173, "lng": -117.2582, "distance": 9354.488047081226}}, "child_left": {"city": "Fillmore", "lat": 34.3989, "lng": -118.9181, "distance": 9354.30708257061}}, "child_right": {"city": "Whittier", "lat": 33.9678, "lng": -118.0188, "distance": 9355.520879928481, "child_left": {"city": "Montebello", "lat": 34.0155, "lng": -118.1108, "distance": 9355.090441449844, "child_right": {"city": "Francisco I. Madero", "lat": 25.7753, "lng": -103.2731, "distance": 9355.404033772433, "child_right": {"city": "Naque", "lat": -19.23, "lng": -42.3278, "distance": 9355.478808809858}}}}}}, "child_right": {"city": "Quibd\u00f3", "lat": 5.6923, "lng": -76.6582, "distance": 9355.786075355281, "child_right": {"city": "East Los Angeles", "lat": 34.0326, "lng": -118.1691, "distance": 9356.081388905579, "child_right": {"city": "Morales", "lat": 15.4725, "lng": -88.8414, "distance": 9357.145280975912, "child_left": {"city": "Pico Rivera", "lat": 33.9902, "lng": -118.0888, "distance": 9356.536548542572, "child_left": {"city": "La Habra", "lat": 33.9278, "lng": -117.9513, "distance": 9356.313549357752, "child_right": {"city": "Placentia", "lat": 33.8807, "lng": -117.8553, "distance": 9356.486680770877}, "child_left": {"city": "Sayaxch\u00e9", "lat": 16.5167, "lng": -90.1833, "distance": 9356.211117716184}}, "child_right": {"city": "Ocotal", "lat": 13.6333, "lng": -86.4833, "distance": 9356.633573195173, "child_right": {"city": "West Whittier-Los Nietos", "lat": 33.9759, "lng": -118.0689, "distance": 9357.014559651609, "child_left": {"city": "Arroyo Grande", "lat": 35.1241, "lng": -120.5845, "distance": 9356.857094089217, "child_right": {"city": "Singhanakhon", "lat": 7.2389, "lng": 100.5506, "distance": 9357.00846196672}, "child_left": {"city": "Lakeland Village", "lat": 33.648, "lng": -117.3706, "distance": 9356.711828000187, "child_right": {"city": "S\u00e3o Jo\u00e3o do Oriente", "lat": -19.3389, "lng": -42.1578, "distance": 9356.76924079189}}}}}}, "child_right": {"city": "Grover Beach", "lat": 35.1204, "lng": -120.6199, "distance": 9358.74585325525, "child_left": {"city": "Saron", "lat": -33.181, "lng": 19.01, "distance": 9357.917317207299, "child_right": {"city": "East Whittier", "lat": 33.9244, "lng": -117.9887, "distance": 9358.343629205192, "child_left": {"city": "Gouv\u00eaa", "lat": -18.4539, "lng": -43.7408, "distance": 9358.291049585196, "child_left": {"city": "Tatsug\u014d", "lat": 28.4131, "lng": 129.5894, "distance": 9357.947569182901}}}, "child_left": {"city": "Pismo Beach", "lat": 35.1484, "lng": -120.6492, "distance": 9357.27214740743, "child_right": {"city": "Dom Cavati", "lat": -19.3739, "lng": -42.1058, "distance": 9357.331971579135}}}, "child_right": {"city": "Commerce", "lat": 33.9963, "lng": -118.1519, "distance": 9358.809911390672}}}, "child_left": {"city": "Yuscar\u00e1n", "lat": 13.9433, "lng": -86.8667, "distance": 9355.972784574493, "child_left": {"city": "Marsella", "lat": 4.9367, "lng": -75.7392, "distance": 9355.965884248688, "child_left": {"city": "Pocrane", "lat": -19.62, "lng": -41.6369, "distance": 9355.913186420928}}}}}}, "child_left": {"city": "Tampico", "lat": 22.2553, "lng": -97.8686, "distance": 9346.858018856998, "child_left": {"city": "Ciudad Madero", "lat": 22.25, "lng": -97.8333, "distance": 9345.146607139768, "child_right": {"city": "Glendale", "lat": 34.1818, "lng": -118.2468, "distance": 9345.175564227155, "child_right": {"city": "San Luis R\u00edo Colorado", "lat": 32.4767, "lng": -114.7625, "distance": 9345.80613398068, "child_left": {"city": "El Monte", "lat": 34.0739, "lng": -118.0291, "distance": 9345.741306838747}, "child_right": {"city": "La Puente", "lat": 34.0323, "lng": -117.9533, "distance": 9346.314939464693, "child_left": {"city": "South San Jose Hills", "lat": 34.0123, "lng": -117.9041, "distance": 9346.007819912522}, "child_right": {"city": "Santa Ana", "lat": 30.5406, "lng": -111.1205, "distance": 9346.796556433195, "child_left": {"city": "San Luis Obispo", "lat": 35.2669, "lng": -120.6691, "distance": 9346.545117612171}}}}, "child_left": {"city": "West Puente Valley", "lat": 34.0512, "lng": -117.9681, "distance": 9345.1628257432}}, "child_left": {"city": "Corona", "lat": 33.8616, "lng": -117.5649, "distance": 9345.056633925871, "child_left": {"city": "Girardot", "lat": 4.3036, "lng": -74.8039, "distance": 9344.526697009818, "child_left": {"city": "Temple City", "lat": 34.1021, "lng": -118.0579, "distance": 9344.32436528498, "child_left": {"city": "San Fernando", "lat": 34.2886, "lng": -118.4363, "distance": 9343.393602424538, "child_right": {"city": "East San Gabriel", "lat": 34.1198, "lng": -118.0807, "distance": 9343.648510016425, "child_right": {"city": "Menifee", "lat": 33.6909, "lng": -117.1849, "distance": 9344.024355953388, "child_left": {"city": "Chino Hills", "lat": 33.9508, "lng": -117.7253, "distance": 9343.791844675527, "child_left": {"city": "Sobr\u00e1lia", "lat": -19.235, "lng": -42.0978, "distance": 9343.65874284539}}}, "child_left": {"city": "Periquito", "lat": -19.1578, "lng": -42.2339, "distance": 9343.573238223296}}, "child_left": {"city": "Holtville", "lat": 32.813, "lng": -115.378, "distance": 9343.317744196824, "child_left": {"city": "Diamond Bar", "lat": 33.9991, "lng": -117.8161, "distance": 9343.274227933822, "child_left": {"city": "Tarumirim", "lat": -19.2808, "lng": -42.0069, "distance": 9343.177880634174}}}}, "child_right": {"city": "Valinda", "lat": 34.0401, "lng": -117.93, "distance": 9344.502430910803, "child_left": {"city": "Morro Bay", "lat": 35.3681, "lng": -120.8481, "distance": 9344.334488441873}}}, "child_right": {"city": "Guanh\u00e3es", "lat": -18.775, "lng": -42.9328, "distance": 9344.757831216335, "child_right": {"city": "S\u00earro", "lat": -18.5204, "lng": -43.3807, "distance": 9344.919770382165, "child_left": {"city": "San Marino", "lat": 34.1224, "lng": -118.1132, "distance": 9344.870419821715}}}}, "child_right": {"city": "Puerto Concordia", "lat": 2.6233, "lng": -72.7592, "distance": 9345.14518968681}}}, "child_right": {"city": "Burbank", "lat": 34.1879, "lng": -118.3235, "distance": 9348.050183103553, "child_right": {"city": "Rosemead", "lat": 34.0689, "lng": -118.0823, "distance": 9348.638345007374, "child_right": {"city": "Brasil\u00e2ndia", "lat": -17.01, "lng": -46.0089, "distance": 9348.73777049107}}, "child_left": {"city": "San Gabriel", "lat": 34.0948, "lng": -118.099, "distance": 9346.893434960275, "child_right": {"city": "South Pasadena", "lat": 34.1103, "lng": -118.1573, "distance": 9348.037487975067, "child_left": {"city": "Avocado Heights", "lat": 34.0381, "lng": -118.0026, "distance": 9347.995393456067, "child_left": {"city": "Xicot\u00e9ncatl", "lat": 22.9958, "lng": -98.9447, "distance": 9347.184667680971, "child_left": {"city": "Flandes", "lat": 4.2844, "lng": -74.8142, "distance": 9346.894477673617, "child_right": {"city": "Rattaphum", "lat": 7.1412, "lng": 100.2905, "distance": 9347.156149643592}}, "child_right": {"city": "Canyon Lake", "lat": 33.6885, "lng": -117.2621, "distance": 9347.815271935257}}}}}}}}}}, "child_right": {"city": "San Diego", "lat": 32.8312, "lng": -117.1225, "distance": 9423.842065511439, "child_right": {"city": "Tijuana", "lat": 32.525, "lng": -117.0333, "distance": 9449.13270705642, "child_right": {"city": "Managua", "lat": 12.15, "lng": -86.2667, "distance": 9469.600386408945, "child_right": {"city": "Hermosillo", "lat": 29.0989, "lng": -110.9542, "distance": 9473.073371784403, "child_left": {"city": "Papantla de Olarte", "lat": 20.4478, "lng": -97.32, "distance": 9472.869303269037, "child_left": {"city": "Nueva Ocotepeque", "lat": 14.4333, "lng": -89.1833, "distance": 9469.983975671094, "child_right": {"city": "Buabidi", "lat": 8.4746, "lng": -81.6983, "distance": 9470.064253256585, "child_right": {"city": "Santa Cruz Verapaz", "lat": 15.3736, "lng": -90.4306, "distance": 9471.824697305483, "child_left": {"city": "Tactic", "lat": 15.3167, "lng": -90.3511, "distance": 9471.472465363413, "child_left": {"city": "Oriz\u00e2nia", "lat": -20.5058, "lng": -42.21, "distance": 9470.829555965125, "child_left": {"city": "Purulh\u00e1", "lat": 15.2353, "lng": -90.235, "distance": 9470.803998979321}}}, "child_right": {"city": "Paraopeba", "lat": -19.2739, "lng": -44.4039, "distance": 9472.155410192223, "child_right": {"city": "Riviersonderend", "lat": -34.15, "lng": 19.9, "distance": 9472.634764313485}, "child_left": {"city": "San Gerardo", "lat": 13.8, "lng": -88.4, "distance": 9472.063503221658}}}}, "child_left": {"city": "Rioblanco", "lat": 3.5292, "lng": -75.6447, "distance": 9469.90711935866, "child_left": {"city": "Leopoldo de Bulh\u00f5es", "lat": -16.6189, "lng": -48.7439, "distance": 9469.735127219179}}}}}, "child_left": {"city": "An\u00e1polis", "lat": -16.3269, "lng": -48.9528, "distance": 9454.928424357757, "child_left": {"city": "East London", "lat": -33.0153, "lng": 27.9116, "distance": 9453.519880838856, "child_right": {"city": "Naha", "lat": 26.2122, "lng": 127.6789, "distance": 9453.971989555863, "child_left": {"city": "Tipitapa", "lat": 12.1973, "lng": -86.0971, "distance": 9453.941506968858, "child_left": {"city": "Alegre", "lat": -20.709, "lng": -41.5194, "distance": 9453.864371968286, "child_left": {"city": "Cordisburgo", "lat": -19.125, "lng": -44.3208, "distance": 9453.534223226327}}, "child_right": {"city": "Tucur\u00fa", "lat": 15.3, "lng": -90.0667, "distance": 9453.971449933548}}, "child_right": {"city": "La Macarena", "lat": 2.1828, "lng": -73.7847, "distance": 9454.859613587967, "child_left": {"city": "San Jorge", "lat": 14.9253, "lng": -89.5897, "distance": 9454.599741870246}}}, "child_left": {"city": "Ginowan", "lat": 26.2817, "lng": 127.7783, "distance": 9453.223560129258, "child_left": {"city": "Koja", "lat": 26.3344, "lng": 127.8057, "distance": 9449.947169794399, "child_right": {"city": "Santiago", "lat": 8.1004, "lng": -80.9833, "distance": 9452.327507912554, "child_right": {"city": "San Carlos", "lat": 11.2, "lng": -84.8333, "distance": 9453.113317639278}, "child_left": {"city": "Tecolutla", "lat": 20.4797, "lng": -97.01, "distance": 9450.612906973261, "child_left": {"city": "S\u00e3o Domingos do Prata", "lat": -19.865, "lng": -42.9678, "distance": 9450.220293944323, "child_right": {"city": "La Alianza", "lat": 13.5167, "lng": -87.7167, "distance": 9450.35706510155}}, "child_right": {"city": "Felixl\u00e2ndia", "lat": -18.7578, "lng": -44.8989, "distance": 9450.745380512928, "child_right": {"city": "Aruan\u00e3", "lat": -14.92, "lng": -51.0828, "distance": 9451.983693450162}}}}, "child_left": {"city": "Tantoyuca", "lat": 21.35, "lng": -98.2333, "distance": 9449.744007168554, "child_left": {"city": "Cazones de Herrera", "lat": 20.7, "lng": -97.3, "distance": 9449.287071413522, "child_right": {"city": "Kuilsrivier", "lat": -34.0333, "lng": 18.7, "distance": 9449.594426099296}}}}, "child_right": {"city": "\u00c1lamo", "lat": 20.9167, "lng": -97.675, "distance": 9453.50399669293, "child_right": {"city": "Bela Vista de Minas", "lat": -19.83, "lng": -43.0908, "distance": 9453.504808935893}}}}, "child_right": {"city": "Cob\u00e1n", "lat": 15.4833, "lng": -90.3667, "distance": 9458.048403061011, "child_left": {"city": "San Pedro Carch\u00e1", "lat": 15.4768, "lng": -90.312, "distance": 9454.97217372385, "child_right": {"city": "Sa \u0110\u00e9c", "lat": 10.3105, "lng": 105.7397, "distance": 9455.043604012197, "child_right": {"city": "Tomigusuku", "lat": 26.1772, "lng": 127.6811, "distance": 9457.296100090114, "child_left": {"city": "Esquipulas", "lat": 14.6167, "lng": -89.2, "distance": 9455.224464496958, "child_right": {"city": "Amat\u00e1n", "lat": 17.3715, "lng": -92.818, "distance": 9455.24892108757, "child_right": {"city": "Matip\u00f3", "lat": -20.2839, "lng": -42.3408, "distance": 9456.606502172583, "child_right": {"city": "San Marcos", "lat": 14.38, "lng": -88.92, "distance": 9456.912903562717, "child_right": {"city": "S\u00e3o Jo\u00e3o do Manhua\u00e7u", "lat": -20.3939, "lng": -42.1508, "distance": 9457.01995653719, "child_left": {"city": "Faina", "lat": -15.4458, "lng": -50.3608, "distance": 9456.95832527183}}, "child_left": {"city": "Genadendal", "lat": -34.0333, "lng": 19.55, "distance": 9456.639398153742}}, "child_left": {"city": "Petrolina de Goi\u00e1s", "lat": -16.095, "lng": -49.3378, "distance": 9456.117590830345, "child_left": {"city": "S\u00e3o Pedro dos Ferros", "lat": -20.17, "lng": -42.5239, "distance": 9455.495098479889}, "child_right": {"city": "Capara\u00f3", "lat": -20.5208, "lng": -41.9069, "distance": 9456.24490864282, "child_right": {"city": "Ixtapangajoya", "lat": 17.4972, "lng": -93.0017, "distance": 9456.249396082076}}}}}}, "child_right": {"city": "Teculut\u00e1n", "lat": 14.9877, "lng": -89.717, "distance": 9457.704852231234}}}}, "child_right": {"city": "Th\u1ee7 D\u1ea7u M\u1ed9t", "lat": 11.0042, "lng": 106.6583, "distance": 9458.789893352481, "child_right": {"city": "Tuy H\u00f2a", "lat": 13.0869, "lng": 109.3086, "distance": 9460.656475616906, "child_right": {"city": "Tulu\u00e1", "lat": 4.0847, "lng": -76.1986, "distance": 9461.186702171299, "child_right": {"city": "Granada", "lat": 11.93, "lng": -85.9561, "distance": 9467.31619906692, "child_left": {"city": "Chiquimula", "lat": 14.7833, "lng": -89.5333, "distance": 9463.129866921181, "child_left": {"city": "Cuencam\u00e9 de Ceniceros", "lat": 24.8667, "lng": -103.7, "distance": 9462.446629014252, "child_left": {"city": "Grahamstown", "lat": -33.2996, "lng": 26.52, "distance": 9461.541935033816, "child_right": {"city": "Maravilla Tenejapa", "lat": 16.1333, "lng": -91.2833, "distance": 9462.356409884922, "child_left": {"city": "Jocoro", "lat": 13.6167, "lng": -88.0167, "distance": 9462.017185814058, "child_left": {"city": "Morada Nova de Minas", "lat": -18.6039, "lng": -45.3569, "distance": 9461.687917309082}, "child_right": {"city": "Bom Jesus do Amparo", "lat": -19.7039, "lng": -43.4739, "distance": 9462.198952754488}}}}, "child_right": {"city": "Itoman", "lat": 26.1181, "lng": 127.6872, "distance": 9463.044071803894}}, "child_right": {"city": "Plat\u00f3n S\u00e1nchez", "lat": 21.2833, "lng": -98.3667, "distance": 9463.929662752591, "child_right": {"city": "Playas de Rosarito", "lat": 32.35, "lng": -117.05, "distance": 9466.746272387087, "child_left": {"city": "Ciudad Barrios", "lat": 13.7667, "lng": -88.2667, "distance": 9465.945580278225, "child_left": {"city": "Silv\u00e2nia", "lat": -16.6589, "lng": -48.6078, "distance": 9465.498432877492, "child_right": {"city": "Abre Campo", "lat": -20.3008, "lng": -42.4778, "distance": 9465.50011506771, "child_right": {"city": "El Divisadero", "lat": 13.6, "lng": -88.05, "distance": 9465.711087040167, "child_right": {"city": "Solosuchiapa", "lat": 17.4, "lng": -93.0167, "distance": 9465.721217121274}}}, "child_left": {"city": "Usumatl\u00e1n", "lat": 14.9489, "lng": -89.7767, "distance": 9465.05907737729, "child_left": {"city": "Tamah\u00fa", "lat": 15.3069, "lng": -90.2342, "distance": 9464.53674325118}}}}, "child_right": {"city": "San Rafael", "lat": 20.1889, "lng": -96.8658, "distance": 9467.26953570737}}, "child_left": {"city": "Swellendam", "lat": -34.0231, "lng": 20.44, "distance": 9463.672815345268, "child_right": {"city": "Huit\u00e9", "lat": 14.9175, "lng": -89.7172, "distance": 9463.803366619342}, "child_left": {"city": "S\u00e3o Gon\u00e7alo do Abaet\u00e9", "lat": -18.3378, "lng": -45.8328, "distance": 9463.289613927911}}}}, "child_right": {"city": "Yala", "lat": 6.5397, "lng": 101.2811, "distance": 9467.979893669737, "child_left": {"city": "Simojovel de Allende", "lat": 17.15, "lng": -92.7167, "distance": 9467.975587742923, "child_left": {"city": "Aipe", "lat": 3.2219, "lng": -75.2375, "distance": 9467.665604121674, "child_right": {"city": "Caba\u00f1as", "lat": 14.9333, "lng": -89.8, "distance": 9467.968977875742, "child_left": {"city": "Vian\u00f3polis", "lat": -16.7419, "lng": -48.5158, "distance": 9467.830605792895, "child_left": {"city": "S\u00e3o Gon\u00e7alo do Rio Abaixo", "lat": -19.8258, "lng": -43.3619, "distance": 9467.71180028025}}}, "child_left": {"city": "Rio Piracicaba", "lat": -19.9289, "lng": -43.1739, "distance": 9467.368850098861, "child_right": {"city": "Rio Casca", "lat": -20.2258, "lng": -42.6508, "distance": 9467.574047910142}}}}, "child_right": {"city": "Espera Feliz", "lat": -20.65, "lng": -41.9069, "distance": 9468.585747542555}}}, "child_left": {"city": "Santa Mar\u00eda del Oro", "lat": 25.9333, "lng": -105.3667, "distance": 9461.057062749256}}, "child_left": {"city": "Yonabaru", "lat": 26.1994, "lng": 127.7547, "distance": 9459.419890214389, "child_right": {"city": "San Francisco", "lat": 13.7, "lng": -88.1, "distance": 9460.450629682717, "child_left": {"city": "Altamirano", "lat": 16.7361, "lng": -92.0389, "distance": 9459.663385438147, "child_right": {"city": "San Juan Chamelco", "lat": 15.4257, "lng": -90.3263, "distance": 9460.359403234901, "child_left": {"city": "Campo Limpo", "lat": -16.2969, "lng": -49.0878, "distance": 9460.073517913905}}, "child_left": {"city": "Olopa", "lat": 14.6833, "lng": -89.35, "distance": 9459.514591546827, "child_right": {"city": "Nautla", "lat": 20.2167, "lng": -96.7833, "distance": 9459.621590396568}}}}, "child_left": {"city": "Jaboticatubas", "lat": -19.5139, "lng": -43.745, "distance": 9458.887374200234, "child_left": {"city": "Luisburgo", "lat": -20.44, "lng": -42.1028, "distance": 9458.878297216166}}}}, "child_left": {"city": "Katsuren-haebaru", "lat": 26.1911, "lng": 127.7286, "distance": 9458.706328003029, "child_left": {"city": "Guacharachi", "lat": 27.15, "lng": -107.3167, "distance": 9458.622302271116}}}}}}, "child_left": {"city": "Cape Town", "lat": -33.925, "lng": 18.425, "distance": 9435.499417735418, "child_right": {"city": "Mazat\u00e1n", "lat": 29.0167, "lng": -110.1333, "distance": 9437.683097805644, "child_right": {"city": "Chula Vista", "lat": 32.6281, "lng": -117.0145, "distance": 9438.338535074734, "child_right": {"city": "Alor Setar", "lat": 6.1167, "lng": 100.3667, "distance": 9440.162815551605, "child_right": {"city": "Cachoeiro de Itapemirim", "lat": -20.8489, "lng": -41.1128, "distance": 9446.020741300073, "child_left": {"city": "Ciudad Valles", "lat": 21.9833, "lng": -99.0167, "distance": 9441.72166785787, "child_left": {"city": "Itabira", "lat": -19.6189, "lng": -43.2269, "distance": 9440.790553360639, "child_right": {"city": "Coronado", "lat": 32.664, "lng": -117.16, "distance": 9441.677330586614}, "child_left": {"city": "Araguapaz", "lat": -15.0908, "lng": -50.6319, "distance": 9440.55347834916}}, "child_right": {"city": "Tempoal de S\u00e1nchez", "lat": 21.5167, "lng": -98.3833, "distance": 9444.216045053243, "child_left": {"city": "Gia Ngh\u0129a", "lat": 12.0042, "lng": 107.6907, "distance": 9443.650705428581, "child_left": {"city": "Chaparral", "lat": 3.7236, "lng": -75.4847, "distance": 9442.013808871245, "child_right": {"city": "Itapuranga", "lat": -15.5619, "lng": -49.9489, "distance": 9443.10848562106, "child_right": {"city": "Manhumirim", "lat": -20.3578, "lng": -41.9578, "distance": 9443.365519773257, "child_right": {"city": "Nova Era", "lat": -19.7606, "lng": -43.0289, "distance": 9443.582218503328}}, "child_left": {"city": "Tepetzintla", "lat": 21.1647, "lng": -97.8528, "distance": 9442.580340939969, "child_left": {"city": "Caputira", "lat": -20.1719, "lng": -42.2708, "distance": 9442.2104990146, "child_right": {"city": "S\u00e3o Jos\u00e9 do Goiabal", "lat": -19.9289, "lng": -42.705, "distance": 9442.211741162837, "child_right": {"city": "Itaguaru", "lat": -15.7578, "lng": -49.6339, "distance": 9442.480451999198}}}}}, "child_left": {"city": "Anamor\u00f3s", "lat": 13.7333, "lng": -87.8667, "distance": 9441.80485828798}}}, "child_right": {"city": "Sabanilla", "lat": 17.2833, "lng": -92.55, "distance": 9445.440505754586, "child_left": {"city": "Raul Soares", "lat": -20.1019, "lng": -42.4528, "distance": 9445.22019217055, "child_left": {"city": "Kadena", "lat": 26.3617, "lng": 127.7553, "distance": 9444.610861842606, "child_right": {"city": "Sixaola", "lat": 9.5083, "lng": -82.6147, "distance": 9445.112763389467}}, "child_right": {"city": "Yaring", "lat": 6.868, "lng": 101.3587, "distance": 9445.299206624859}}, "child_right": {"city": "Ixcatepec", "lat": 21.2333, "lng": -98.0, "distance": 9445.638333842082, "child_left": {"city": "Kin", "lat": 26.4561, "lng": 127.9261, "distance": 9445.5874774489}}}}},